{
  "外單位合作雨量測站": {
    "雨量": [
      {
        "code": "00H710",
        "name": "集集(2)",
        "city": "南投縣",
        "lon": 120.774892,
        "lat": 23.826281
      },
      {
        "code": "00H810",
        "name": "惠蓀(2)",
        "city": "南投縣",
        "lon": 121.032224,
        "lat": 24.090736
      },
      {
        "code": "00Q070",
        "name": "屏東(5)",
        "city": "屏東縣",
        "lon": 120.466375,
        "lat": 22.654873
      },
      {
        "code": "01A130",
        "name": "石碇(2)",
        "city": "新北市",
        "lon": 121.657883,
        "lat": 24.991596
      },
      {
        "code": "01A190",
        "name": "碧湖",
        "city": "新北市",
        "lon": 121.745559,
        "lat": 24.890886
      },
      {
        "code": "01A200",
        "name": "火燒寮",
        "city": "新北市",
        "lon": 121.749275,
        "lat": 24.981089
      },
      {
        "code": "01A210",
        "name": "大豹",
        "city": "新北市",
        "lon": 121.421373,
        "lat": 24.887277
      },
      {
        "code": "01A220",
        "name": "三峽",
        "city": "新北市",
        "lon": 121.355555,
        "lat": 24.938878
      },
      {
        "code": "01A350",
        "name": "富貴角",
        "city": "新北市",
        "lon": 121.544109,
        "lat": 25.288486
      },
      {
        "code": "01A380",
        "name": "瑞芳(2)",
        "city": "新北市",
        "lon": 121.803301,
        "lat": 25.110338
      },
      {
        "code": "01A410",
        "name": "中正橋",
        "city": "臺北市",
        "lon": 121.516401,
        "lat": 25.021931
      },
      {
        "code": "01A420",
        "name": "竹子湖(2)",
        "city": "臺北市",
        "lon": 121.54405,
        "lat": 25.162299
      },
      {
        "code": "01A430",
        "name": "福山(3)",
        "city": "新北市",
        "lon": 121.497357,
        "lat": 24.7798
      },
      {
        "code": "01A440",
        "name": "大桶山",
        "city": "新北市",
        "lon": 121.562992,
        "lat": 24.876212
      },
      {
        "code": "01A450",
        "name": "坪林(4)",
        "city": "新北市",
        "lon": 121.710278,
        "lat": 24.936389
      },
      {
        "code": "01AD90",
        "name": "覽勝橋",
        "city": "新北市",
        "lon": 121.551378,
        "lat": 24.862306
      },
      {
        "code": "01AF90",
        "name": "三貂嶺",
        "city": "新北市",
        "lon": 121.820556,
        "lat": 25.059541
      },
      {
        "code": "01AG00",
        "name": "社后橋",
        "city": "新北市",
        "lon": 121.633793,
        "lat": 25.063288
      },
      {
        "code": "01AG10",
        "name": "熊空山",
        "city": "新北市",
        "lon": 121.451992,
        "lat": 24.87561
      },
      {
        "code": "01B030",
        "name": "五堵",
        "city": "基隆市",
        "lon": 121.696626,
        "lat": 25.079005
      },
      {
        "code": "01C400",
        "name": "石門(3)",
        "city": "桃園市",
        "lon": 121.25144,
        "lat": 24.824459
      },
      {
        "code": "01C570",
        "name": "龍壽社區",
        "city": "桃園市",
        "lon": 121.387637,
        "lat": 25.010105
      },
      {
        "code": "01D100",
        "name": "太閣南",
        "city": "新竹縣",
        "lon": 121.148046,
        "lat": 24.625286
      },
      {
        "code": "01D110",
        "name": "清泉",
        "city": "新竹縣",
        "lon": 121.10352,
        "lat": 24.573125
      },
      {
        "code": "01D180",
        "name": "梅花",
        "city": "新竹縣",
        "lon": 121.208601,
        "lat": 24.677573
      },
      {
        "code": "01D190",
        "name": "鳥嘴山",
        "city": "新竹縣",
        "lon": 121.28372,
        "lat": 24.719164
      },
      {
        "code": "01D300",
        "name": "關西(3)",
        "city": "新竹縣",
        "lon": 121.180437,
        "lat": 24.780225
      },
      {
        "code": "01D310",
        "name": "新埔(1)",
        "city": "新竹縣",
        "lon": 121.071412,
        "lat": 24.829422
      },
      {
        "code": "01E030",
        "name": "橫龍山",
        "city": "苗栗縣",
        "lon": 120.968785,
        "lat": 24.469909
      },
      {
        "code": "01E060",
        "name": "象鼻(1)",
        "city": "苗栗縣",
        "lon": 120.948417,
        "lat": 24.36042
      },
      {
        "code": "01E080",
        "name": "松安",
        "city": "苗栗縣",
        "lon": 120.986018,
        "lat": 24.397796
      },
      {
        "code": "01E120",
        "name": "大埔",
        "city": "苗栗縣",
        "lon": 120.898219,
        "lat": 24.709464
      },
      {
        "code": "01E170",
        "name": "南庄(1)",
        "city": "苗栗縣",
        "lon": 121.00036,
        "lat": 24.597043
      },
      {
        "code": "01E230",
        "name": "卓蘭(2)",
        "city": "臺中市",
        "lon": 120.813208,
        "lat": 24.30505
      },
      {
        "code": "01E240",
        "name": "珊珠湖",
        "city": "苗栗縣",
        "lon": 120.960275,
        "lat": 24.687014
      },
      {
        "code": "01E270",
        "name": "大湖(1)",
        "city": "苗栗縣",
        "lon": 120.869835,
        "lat": 24.42364
      },
      {
        "code": "01E290",
        "name": "三義(2)",
        "city": "苗栗縣",
        "lon": 120.77003,
        "lat": 24.414244
      },
      {
        "code": "01E310",
        "name": "南勢山",
        "city": "苗栗縣",
        "lon": 120.735306,
        "lat": 24.588003
      },
      {
        "code": "01E330",
        "name": "大坪頂",
        "city": "苗栗縣",
        "lon": 120.727759,
        "lat": 24.425484
      },
      {
        "code": "01E370",
        "name": "和興",
        "city": "苗栗縣",
        "lon": 120.913109,
        "lat": 24.528034
      },
      {
        "code": "01E390",
        "name": "大潭",
        "city": "苗栗縣",
        "lon": 120.820796,
        "lat": 24.635269
      },
      {
        "code": "01E400",
        "name": "三灣",
        "city": "苗栗縣",
        "lon": 120.955306,
        "lat": 24.655722
      },
      {
        "code": "01F350",
        "name": "雪嶺",
        "city": "臺中市",
        "lon": 121.02549,
        "lat": 24.279567
      },
      {
        "code": "01F680",
        "name": "頭汴坑",
        "city": "臺中市",
        "lon": 120.811125,
        "lat": 24.115092
      },
      {
        "code": "01G090",
        "name": "頭汴",
        "city": "彰化縣",
        "lon": 120.484036,
        "lat": 24.085275
      },
      {
        "code": "01G240",
        "name": "萬興(2)",
        "city": "彰化縣",
        "lon": 120.416991,
        "lat": 23.955381
      },
      {
        "code": "01H110",
        "name": "桶頭(2)",
        "city": "南投縣",
        "lon": 120.657625,
        "lat": 23.644646
      },
      {
        "code": "01H210",
        "name": "翠巒",
        "city": "南投縣",
        "lon": 121.203514,
        "lat": 24.182576
      },
      {
        "code": "01H310",
        "name": "翠峰",
        "city": "南投縣",
        "lon": 121.199288,
        "lat": 24.106999
      },
      {
        "code": "01H390",
        "name": "望鄉",
        "city": "南投縣",
        "lon": 120.927817,
        "lat": 23.619266
      },
      {
        "code": "01H400",
        "name": "東埔",
        "city": "南投縣",
        "lon": 120.928349,
        "lat": 23.561831
      },
      {
        "code": "01H470",
        "name": "西巒",
        "city": "南投縣",
        "lon": 120.917657,
        "lat": 23.710574
      },
      {
        "code": "01H590",
        "name": "六分寮",
        "city": "南投縣",
        "lon": 120.63801,
        "lat": 23.926186
      },
      {
        "code": "01H630",
        "name": "草屯(4)",
        "city": "南投縣",
        "lon": 120.678996,
        "lat": 23.972525
      },
      {
        "code": "01H680",
        "name": "北山(2)",
        "city": "南投縣",
        "lon": 120.892835,
        "lat": 23.985549
      },
      {
        "code": "01H720",
        "name": "清流(1)",
        "city": "南投縣",
        "lon": 120.953395,
        "lat": 24.066314
      },
      {
        "code": "01H780",
        "name": "內茅埔(2)",
        "city": "南投縣",
        "lon": 120.851828,
        "lat": 23.6906
      },
      {
        "code": "01J100",
        "name": "西螺(2)",
        "city": "雲林縣",
        "lon": 120.464851,
        "lat": 23.800493
      },
      {
        "code": "01J930",
        "name": "林內(1)",
        "city": "雲林縣",
        "lon": 120.612491,
        "lat": 23.755254
      },
      {
        "code": "01J960",
        "name": "大埔",
        "city": "雲林縣",
        "lon": 120.615417,
        "lat": 23.630394
      },
      {
        "code": "01J970",
        "name": "草嶺(2)",
        "city": "雲林縣",
        "lon": 120.695634,
        "lat": 23.584167
      },
      {
        "code": "01K060",
        "name": "褒忠(2)",
        "city": "雲林縣",
        "lon": 120.311047,
        "lat": 23.701086
      },
      {
        "code": "01L360",
        "name": "小公田(2)",
        "city": "嘉義縣",
        "lon": 120.641716,
        "lat": 23.424513
      },
      {
        "code": "01L390",
        "name": "大湖山",
        "city": "嘉義縣",
        "lon": 120.620189,
        "lat": 23.475173
      },
      {
        "code": "01L480",
        "name": "樟腦寮(2)",
        "city": "嘉義縣",
        "lon": 120.602587,
        "lat": 23.533049
      },
      {
        "code": "01L490",
        "name": "沙坑",
        "city": "嘉義縣",
        "lon": 120.520569,
        "lat": 23.530321
      },
      {
        "code": "01L910",
        "name": "中坑(3)",
        "city": "嘉義縣",
        "lon": 120.520964,
        "lat": 23.570458
      },
      {
        "code": "01M010",
        "name": "溪口(3)",
        "city": "嘉義縣",
        "lon": 120.40001,
        "lat": 23.587551
      },
      {
        "code": "01N850",
        "name": "南化(2)",
        "city": "臺南市",
        "lon": 120.479345,
        "lat": 23.044518
      },
      {
        "code": "01N860",
        "name": "崎頂",
        "city": "臺南市",
        "lon": 120.359823,
        "lat": 22.964938
      },
      {
        "code": "01N870",
        "name": "南化大壩",
        "city": "臺南市",
        "lon": 120.537255,
        "lat": 23.086538
      },
      {
        "code": "01N880",
        "name": "大條埔",
        "city": "臺南市",
        "lon": 120.607894,
        "lat": 23.208958
      },
      {
        "code": "01N890",
        "name": "平坑",
        "city": "臺南市",
        "lon": 120.618125,
        "lat": 23.190791
      },
      {
        "code": "01N900",
        "name": "大竹坑",
        "city": "臺南市",
        "lon": 120.57703,
        "lat": 23.141819
      },
      {
        "code": "01N910",
        "name": "鏡面大壩",
        "city": "臺南市",
        "lon": 120.48799,
        "lat": 23.0585
      },
      {
        "code": "01O070",
        "name": "關子嶺(2)",
        "city": "臺南市",
        "lon": 120.506972,
        "lat": 23.330882
      },
      {
        "code": "01O080",
        "name": "六溪",
        "city": "臺南市",
        "lon": 120.459288,
        "lat": 23.309037
      },
      {
        "code": "01O190",
        "name": "東原",
        "city": "臺南市",
        "lon": 120.445893,
        "lat": 23.265355
      },
      {
        "code": "01O200",
        "name": "北寮",
        "city": "臺南市",
        "lon": 120.496384,
        "lat": 23.290374
      },
      {
        "code": "01O710",
        "name": "虎頭埤",
        "city": "臺南市",
        "lon": 120.337183,
        "lat": 23.025684
      },
      {
        "code": "01O750",
        "name": "王爺宮",
        "city": "臺南市",
        "lon": 120.400432,
        "lat": 23.222178
      },
      {
        "code": "01O760",
        "name": "關山",
        "city": "臺南市",
        "lon": 120.595163,
        "lat": 23.173338
      },
      {
        "code": "01P190",
        "name": "木柵",
        "city": "高雄市",
        "lon": 120.467014,
        "lat": 22.975659
      },
      {
        "code": "01P280",
        "name": "古亭坑",
        "city": "高雄市",
        "lon": 120.404543,
        "lat": 22.892785
      },
      {
        "code": "01P390",
        "name": "金山",
        "city": "高雄市",
        "lon": 120.398164,
        "lat": 22.811862
      },
      {
        "code": "01P500",
        "name": "阿蓮(2)",
        "city": "高雄市",
        "lon": 120.327203,
        "lat": 22.876332
      },
      {
        "code": "01P660",
        "name": "甲仙(2)",
        "city": "高雄市",
        "lon": 120.58767,
        "lat": 23.083884
      },
      {
        "code": "01P770",
        "name": "美濃(2)",
        "city": "高雄市",
        "lon": 120.540195,
        "lat": 22.892969
      },
      {
        "code": "01Q350",
        "name": "新來義",
        "city": "屏東縣",
        "lon": 120.678346,
        "lat": 22.526997
      },
      {
        "code": "01Q360",
        "name": "南和",
        "city": "屏東縣",
        "lon": 120.638399,
        "lat": 22.434551
      },
      {
        "code": "01Q610",
        "name": "古夏",
        "city": "屏東縣",
        "lon": 120.64444,
        "lat": 22.76625
      },
      {
        "code": "01Q860",
        "name": "牡丹",
        "city": "屏東縣",
        "lon": 120.836703,
        "lat": 22.175595
      },
      {
        "code": "01Q920",
        "name": "新瑪家",
        "city": "屏東縣",
        "lon": 120.686784,
        "lat": 22.675384
      },
      {
        "code": "01Q930",
        "name": "三地門",
        "city": "屏東縣",
        "lon": 120.649251,
        "lat": 22.708369
      },
      {
        "code": "01Q960",
        "name": "泰武(2)",
        "city": "屏東縣",
        "lon": 120.685278,
        "lat": 22.598611
      },
      {
        "code": "01R000",
        "name": "壽卡",
        "city": "屏東縣",
        "lon": 120.835687,
        "lat": 22.245154
      },
      {
        "code": "01R030",
        "name": "大漢山",
        "city": "屏東縣",
        "lon": 120.683098,
        "lat": 22.419298
      },
      {
        "code": "01R040",
        "name": "士文",
        "city": "屏東縣",
        "lon": 120.663618,
        "lat": 22.368323
      },
      {
        "code": "01R440",
        "name": "泗林",
        "city": "屏東縣",
        "lon": 120.569592,
        "lat": 22.545635
      },
      {
        "code": "01S130",
        "name": "武陵",
        "city": "臺東縣",
        "lon": 121.11534,
        "lat": 22.969742
      },
      {
        "code": "01S210",
        "name": "知本(5)",
        "city": "臺東縣",
        "lon": 120.99909,
        "lat": 22.690878
      },
      {
        "code": "01S260",
        "name": "忠勇",
        "city": "臺東縣",
        "lon": 121.439636,
        "lat": 23.325933
      },
      {
        "code": "01S270",
        "name": "樟原(1)",
        "city": "臺東縣",
        "lon": 121.459474,
        "lat": 23.403797
      },
      {
        "code": "01S360",
        "name": "紹家",
        "city": "臺東縣",
        "lon": 120.858181,
        "lat": 22.379592
      },
      {
        "code": "01S430",
        "name": "霧鹿",
        "city": "臺東縣",
        "lon": 121.041436,
        "lat": 23.169246
      },
      {
        "code": "01S440",
        "name": "新武(3)",
        "city": "臺東縣",
        "lon": 121.122873,
        "lat": 23.132568
      },
      {
        "code": "01S470",
        "name": "向陽(2)",
        "city": "臺東縣",
        "lon": 120.985899,
        "lat": 23.247932
      },
      {
        "code": "01S560",
        "name": "南鵝",
        "city": "臺東縣",
        "lon": 121.024368,
        "lat": 22.766264
      },
      {
        "code": "01S570",
        "name": "上里",
        "city": "臺東縣",
        "lon": 121.057045,
        "lat": 22.877254
      },
      {
        "code": "01S610",
        "name": "台東(7)",
        "city": "臺東縣",
        "lon": 121.158652,
        "lat": 22.753496
      },
      {
        "code": "01S860",
        "name": "電光",
        "city": "臺東縣",
        "lon": 121.173241,
        "lat": 23.006248
      },
      {
        "code": "01S870",
        "name": "北源",
        "city": "臺東縣",
        "lon": 121.301007,
        "lat": 23.037536
      },
      {
        "code": "01T220",
        "name": "卓麓(4)",
        "city": "花蓮縣",
        "lon": 121.266944,
        "lat": 23.295556
      },
      {
        "code": "01T230",
        "name": "立山",
        "city": "花蓮縣",
        "lon": 121.312632,
        "lat": 23.430078
      },
      {
        "code": "01T240",
        "name": "苗圃",
        "city": "花蓮縣",
        "lon": 121.279375,
        "lat": 23.417015
      },
      {
        "code": "01T500",
        "name": "北埔",
        "city": "花蓮縣",
        "lon": 121.604462,
        "lat": 24.037079
      },
      {
        "code": "01T560",
        "name": "西林",
        "city": "花蓮縣",
        "lon": 121.432069,
        "lat": 23.819214
      },
      {
        "code": "01T660",
        "name": "馬太安",
        "city": "花蓮縣",
        "lon": 121.371893,
        "lat": 23.672706
      },
      {
        "code": "01T670",
        "name": "新東礦",
        "city": "花蓮縣",
        "lon": 121.403464,
        "lat": 23.814841
      },
      {
        "code": "01T720",
        "name": "明里",
        "city": "花蓮縣",
        "lon": 121.25167,
        "lat": 23.202324
      },
      {
        "code": "01T730",
        "name": "豐濱",
        "city": "花蓮縣",
        "lon": 121.520492,
        "lat": 23.602442
      },
      {
        "code": "01T9J0",
        "name": "六十石山",
        "city": "花蓮縣",
        "lon": 121.32297,
        "lat": 23.217557
      },
      {
        "code": "01T9L0",
        "name": "東富",
        "city": "花蓮縣",
        "lon": 121.482088,
        "lat": 23.684836
      },
      {
        "code": "01U050",
        "name": "土場(1)",
        "city": "宜蘭縣",
        "lon": 121.49644,
        "lat": 24.572873
      },
      {
        "code": "01U060",
        "name": "梵梵(2)",
        "city": "宜蘭縣",
        "lon": 121.525585,
        "lat": 24.613062
      },
      {
        "code": "01U070",
        "name": "留茂安",
        "city": "宜蘭縣",
        "lon": 121.451236,
        "lat": 24.531772
      },
      {
        "code": "01U080",
        "name": "南山",
        "city": "宜蘭縣",
        "lon": 121.379327,
        "lat": 24.437089
      },
      {
        "code": "01U120",
        "name": "新寮(1)",
        "city": "宜蘭縣",
        "lon": 121.751929,
        "lat": 24.624996
      },
      {
        "code": "01U130",
        "name": "冬山",
        "city": "宜蘭縣",
        "lon": 121.783933,
        "lat": 24.635687
      },
      {
        "code": "01U190",
        "name": "新北城",
        "city": "宜蘭縣",
        "lon": 121.748775,
        "lat": 24.680903
      },
      {
        "code": "01U230",
        "name": "大濁水",
        "city": "宜蘭縣",
        "lon": 121.739594,
        "lat": 24.329422
      },
      {
        "code": "01U450",
        "name": "樟林",
        "city": "宜蘭縣",
        "lon": 121.749405,
        "lat": 24.42585
      },
      {
        "code": "01U460",
        "name": "五峰",
        "city": "宜蘭縣",
        "lon": 121.748477,
        "lat": 24.829997
      },
      {
        "code": "01U470",
        "name": "武塔",
        "city": "宜蘭縣",
        "lon": 121.77722,
        "lat": 24.449458
      },
      {
        "code": "01U560",
        "name": "太平山(1)",
        "city": "宜蘭縣",
        "lon": 121.536435,
        "lat": 24.494522
      },
      {
        "code": "01U780",
        "name": "四季",
        "city": "宜蘭縣",
        "lon": 121.426136,
        "lat": 24.488418
      },
      {
        "code": "01U790",
        "name": "清水",
        "city": "宜蘭縣",
        "lon": 121.637272,
        "lat": 24.614906
      },
      {
        "code": "01U880",
        "name": "福山植物園",
        "city": "宜蘭縣",
        "lon": 121.581321,
        "lat": 24.760637
      },
      {
        "code": "01V040",
        "name": "六龜(4)",
        "city": "高雄市",
        "lon": 120.633563,
        "lat": 22.997838
      },
      {
        "code": "01V060",
        "name": "梅山(2)",
        "city": "高雄市",
        "lon": 120.824866,
        "lat": 23.265549
      },
      {
        "code": "01V070",
        "name": "天池",
        "city": "高雄市",
        "lon": 120.916901,
        "lat": 23.277581
      },
      {
        "code": "01W010",
        "name": "望安",
        "city": "澎湖縣",
        "lon": 119.499889,
        "lat": 23.357583
      },
      {
        "code": "21C050",
        "name": "石門",
        "city": "桃園市",
        "lon": 121.248473,
        "lat": 24.809322
      },
      {
        "code": "21C070",
        "name": "巴陵",
        "city": "桃園市",
        "lon": 121.391485,
        "lat": 24.681503
      },
      {
        "code": "21C080",
        "name": "高義",
        "city": "桃園市",
        "lon": 121.358188,
        "lat": 24.714905
      },
      {
        "code": "21C090",
        "name": "嘎拉賀",
        "city": "桃園市",
        "lon": 121.408182,
        "lat": 24.631502
      },
      {
        "code": "21C140",
        "name": "霞雲",
        "city": "桃園市",
        "lon": 121.358193,
        "lat": 24.798205
      },
      {
        "code": "21D150",
        "name": "玉峰",
        "city": "新竹縣",
        "lon": 121.308185,
        "lat": 24.664908
      },
      {
        "code": "21D160",
        "name": "白石",
        "city": "新竹縣",
        "lon": 121.224879,
        "lat": 24.548212
      },
      {
        "code": "21D170",
        "name": "鎮西堡",
        "city": "新竹縣",
        "lon": 121.308179,
        "lat": 24.564908
      },
      {
        "code": "21D350",
        "name": "西丘斯山",
        "city": "新竹縣",
        "lon": 121.358179,
        "lat": 24.581505
      },
      {
        "code": "21U110",
        "name": "池端",
        "city": "宜蘭縣",
        "lon": 121.474881,
        "lat": 24.631499
      },
      {
        "code": "81AH40",
        "name": "精忠",
        "city": "新北市",
        "lon": 121.53208,
        "lat": 24.959713
      },
      {
        "code": "81AH50",
        "name": "萬里國小",
        "city": "新北市",
        "lon": 121.689444,
        "lat": 25.175833
      },
      {
        "code": "81AH60",
        "name": "長坑國小",
        "city": "新北市",
        "lon": 121.390556,
        "lat": 25.126667
      },
      {
        "code": "81AH70",
        "name": "柑林國小",
        "city": "新北市",
        "lon": 121.804444,
        "lat": 25.015833
      },
      {
        "code": "81AH80",
        "name": "五城加油站",
        "city": "新北市",
        "lon": 121.470989,
        "lat": 24.939858
      },
      {
        "code": "81AH90",
        "name": "信賢派出所",
        "city": "新北市",
        "lon": 121.526111,
        "lat": 24.838333
      },
      {
        "code": "81AI00",
        "name": "五寮國小",
        "city": "新北市",
        "lon": 121.36,
        "lat": 24.858889
      },
      {
        "code": "81AI10",
        "name": "建安國小",
        "city": "新北市",
        "lon": 121.446624,
        "lat": 24.925692
      },
      {
        "code": "81AI20",
        "name": "有木國小",
        "city": "新北市",
        "lon": 121.4375,
        "lat": 24.853611
      },
      {
        "code": "81AI30",
        "name": "大粗坑",
        "city": "新北市",
        "lon": 121.838927,
        "lat": 25.091251
      },
      {
        "code": "81AJ20",
        "name": "東山",
        "city": "新北市",
        "lon": 121.696389,
        "lat": 25.054444
      },
      {
        "code": "81AJ30",
        "name": "華梵大學",
        "city": "新北市",
        "lon": 121.690278,
        "lat": 24.982222
      },
      {
        "code": "81C700",
        "name": "大艽芎古道",
        "city": "桃園市",
        "lon": 121.288611,
        "lat": 24.825
      },
      {
        "code": "81C710",
        "name": "高坡國小",
        "city": "桃園市",
        "lon": 121.35156,
        "lat": 24.767971
      },
      {
        "code": "81C780",
        "name": "奎輝國小",
        "city": "桃園市",
        "lon": 121.334444,
        "lat": 24.7975
      },
      {
        "code": "81C790",
        "name": "華陵",
        "city": "桃園市",
        "lon": 121.397222,
        "lat": 24.663333
      },
      {
        "code": "81D600",
        "name": "五峰國小",
        "city": "新竹縣",
        "lon": 121.117585,
        "lat": 24.631479
      },
      {
        "code": "81D630",
        "name": "尖石國小",
        "city": "新竹縣",
        "lon": 121.226523,
        "lat": 24.728728
      },
      {
        "code": "81D640",
        "name": "錦屏國小",
        "city": "新竹縣",
        "lon": 121.246763,
        "lat": 24.680365
      },
      {
        "code": "81D650",
        "name": "內灣國小",
        "city": "新竹縣",
        "lon": 121.183143,
        "lat": 24.705412
      },
      {
        "code": "81D660",
        "name": "花園派出所",
        "city": "新竹縣",
        "lon": 121.151106,
        "lat": 24.646103
      },
      {
        "code": "81D670",
        "name": "田埔分校",
        "city": "新竹縣",
        "lon": 121.278611,
        "lat": 24.641389
      },
      {
        "code": "81D760",
        "name": "錦山國小",
        "city": "新竹縣",
        "lon": 121.225244,
        "lat": 24.769203
      },
      {
        "code": "81D770",
        "name": "秀巒國小",
        "city": "新竹縣",
        "lon": 121.285833,
        "lat": 24.618333
      },
      {
        "code": "81E710",
        "name": "開礦國小",
        "city": "苗栗縣",
        "lon": 120.863889,
        "lat": 24.461667
      },
      {
        "code": "81E720",
        "name": "慈惠堂",
        "city": "苗栗縣",
        "lon": 120.790278,
        "lat": 24.4475
      },
      {
        "code": "81E870",
        "name": "白布帆",
        "city": "苗栗縣",
        "lon": 120.905896,
        "lat": 24.298227
      },
      {
        "code": "81E880",
        "name": "火炎山",
        "city": "苗栗縣",
        "lon": 120.729316,
        "lat": 24.356087
      },
      {
        "code": "81F880",
        "name": "中坑國小",
        "city": "臺中市",
        "lon": 120.88,
        "lat": 24.236389
      },
      {
        "code": "81F890",
        "name": "坪廓分校",
        "city": "臺中市",
        "lon": 120.756667,
        "lat": 24.156667
      },
      {
        "code": "81F900",
        "name": "峰谷國小",
        "city": "臺中市",
        "lon": 120.724444,
        "lat": 24.035278
      },
      {
        "code": "81F910",
        "name": "達觀國小",
        "city": "臺中市",
        "lon": 120.920278,
        "lat": 24.333611
      },
      {
        "code": "81F960",
        "name": "梨山部落",
        "city": "臺中市",
        "lon": 121.259166,
        "lat": 24.257222
      },
      {
        "code": "81F970",
        "name": "松茂部落",
        "city": "臺中市",
        "lon": 121.263333,
        "lat": 24.2775
      },
      {
        "code": "81H900",
        "name": "大觀發電廠",
        "city": "南投縣",
        "lon": 120.869499,
        "lat": 23.854531
      },
      {
        "code": "81H910",
        "name": "平林國小",
        "city": "南投縣",
        "lon": 120.7625,
        "lat": 23.992778
      },
      {
        "code": "81H920",
        "name": "德化國小",
        "city": "南投縣",
        "lon": 120.935333,
        "lat": 23.84869
      },
      {
        "code": "81H930",
        "name": "玉峰國小",
        "city": "南投縣",
        "lon": 120.837618,
        "lat": 23.805589
      },
      {
        "code": "81H940",
        "name": "人和國小",
        "city": "南投縣",
        "lon": 120.896691,
        "lat": 23.77896
      },
      {
        "code": "81H950",
        "name": "福龜國小",
        "city": "南投縣",
        "lon": 120.822421,
        "lat": 24.011505
      },
      {
        "code": "81H960",
        "name": "北港國小",
        "city": "南投縣",
        "lon": 120.911322,
        "lat": 24.056661
      },
      {
        "code": "81H970",
        "name": "永興國小",
        "city": "南投縣",
        "lon": 120.86372,
        "lat": 23.784838
      },
      {
        "code": "81H980",
        "name": "車籠埔",
        "city": "南投縣",
        "lon": 120.710833,
        "lat": 23.793611
      },
      {
        "code": "81H990",
        "name": "羅娜國小",
        "city": "南投縣",
        "lon": 120.870556,
        "lat": 23.628333
      },
      {
        "code": "81HA60",
        "name": "中興新村",
        "city": "南投縣",
        "lon": 120.686389,
        "lat": 23.959722
      },
      {
        "code": "81HB20",
        "name": "廬山國小",
        "city": "南投縣",
        "lon": 121.186111,
        "lat": 24.035
      },
      {
        "code": "81HB30",
        "name": "和雅茶園",
        "city": "南投縣",
        "lon": 120.762222,
        "lat": 23.702777
      },
      {
        "code": "81HB40",
        "name": "東埔吊橋",
        "city": "南投縣",
        "lon": 120.922408,
        "lat": 23.561737
      },
      {
        "code": "81I520",
        "name": "九份二山",
        "city": "南投縣",
        "lon": 120.854392,
        "lat": 23.949895
      },
      {
        "code": "81I530",
        "name": "神木",
        "city": "南投縣",
        "lon": 120.856691,
        "lat": 23.528204
      },
      {
        "code": "81I540",
        "name": "上安",
        "city": "南投縣",
        "lon": 120.876679,
        "lat": 23.72541
      },
      {
        "code": "81I550",
        "name": "郡坑",
        "city": "南投縣",
        "lon": 120.870126,
        "lat": 23.739861
      },
      {
        "code": "81I560",
        "name": "豐丘",
        "city": "南投縣",
        "lon": 120.876961,
        "lat": 23.667997
      },
      {
        "code": "81K580",
        "name": "坪頂",
        "city": "雲林縣",
        "lon": 120.639013,
        "lat": 23.75386
      },
      {
        "code": "81M020",
        "name": "豐山",
        "city": "嘉義縣",
        "lon": 120.744799,
        "lat": 23.590386
      },
      {
        "code": "81M660",
        "name": "阿里山國小",
        "city": "嘉義縣",
        "lon": 120.701672,
        "lat": 23.469067
      },
      {
        "code": "81M670",
        "name": "新美國小",
        "city": "嘉義縣",
        "lon": 120.683124,
        "lat": 23.337816
      },
      {
        "code": "81M680",
        "name": "太和村",
        "city": "嘉義縣",
        "lon": 120.708889,
        "lat": 23.535556
      },
      {
        "code": "81M690",
        "name": "沄水國小",
        "city": "嘉義縣",
        "lon": 120.530602,
        "lat": 23.381471
      },
      {
        "code": "81M780",
        "name": "文峰遊客中心",
        "city": "嘉義縣",
        "lon": 120.593333,
        "lat": 23.5175
      },
      {
        "code": "81M790",
        "name": "麻竹湖步道",
        "city": "嘉義縣",
        "lon": 120.649042,
        "lat": 23.403853
      },
      {
        "code": "81M800",
        "name": "來吉國小",
        "city": "嘉義縣",
        "lon": 120.74,
        "lat": 23.53
      },
      {
        "code": "81M810",
        "name": "瑞里國小",
        "city": "嘉義縣",
        "lon": 120.66493,
        "lat": 23.539612
      },
      {
        "code": "81M820",
        "name": "澐水溫泉",
        "city": "嘉義縣",
        "lon": 120.562406,
        "lat": 23.374926
      },
      {
        "code": "81O960",
        "name": "崁頭山",
        "city": "臺南市",
        "lon": 120.501621,
        "lat": 23.267835
      },
      {
        "code": "81R640",
        "name": "佳義國小",
        "city": "屏東縣",
        "lon": 120.630973,
        "lat": 22.653117
      },
      {
        "code": "81R650",
        "name": "丹路國小",
        "city": "屏東縣",
        "lon": 120.751358,
        "lat": 22.203384
      },
      {
        "code": "81R660",
        "name": "內獅國小",
        "city": "屏東縣",
        "lon": 120.644722,
        "lat": 22.305
      },
      {
        "code": "81S540",
        "name": "拉里吧",
        "city": "臺東縣",
        "lon": 120.9125,
        "lat": 22.479722
      },
      {
        "code": "81S560",
        "name": "三和國小",
        "city": "臺東縣",
        "lon": 121.037516,
        "lat": 22.67206
      },
      {
        "code": "81S570",
        "name": "月眉國小",
        "city": "臺東縣",
        "lon": 121.148008,
        "lat": 23.010004
      },
      {
        "code": "81S880",
        "name": "愛國埔分校",
        "city": "臺東縣",
        "lon": 120.922713,
        "lat": 22.457746
      },
      {
        "code": "81S890",
        "name": "初鹿國中",
        "city": "臺東縣",
        "lon": 121.092326,
        "lat": 22.849954
      },
      {
        "code": "81S900",
        "name": "加拿國小",
        "city": "臺東縣",
        "lon": 121.130944,
        "lat": 23.001003
      },
      {
        "code": "81S910",
        "name": "膽曼",
        "city": "臺東縣",
        "lon": 121.412806,
        "lat": 23.224869
      },
      {
        "code": "81S920",
        "name": "金峰鄉公所",
        "city": "臺東縣",
        "lon": 120.960944,
        "lat": 22.598647
      },
      {
        "code": "81S930",
        "name": "射馬干",
        "city": "臺東縣",
        "lon": 121.03782,
        "lat": 22.725061
      },
      {
        "code": "81T1A0",
        "name": "崇德國小",
        "city": "花蓮縣",
        "lon": 121.653037,
        "lat": 24.161555
      },
      {
        "code": "81T1B0",
        "name": "和仁車站",
        "city": "花蓮縣",
        "lon": 121.708898,
        "lat": 24.236166
      },
      {
        "code": "81T1C0",
        "name": "明利國小",
        "city": "花蓮縣",
        "lon": 121.4125,
        "lat": 23.706388
      },
      {
        "code": "81T760",
        "name": "富南部落",
        "city": "花蓮縣",
        "lon": 121.246667,
        "lat": 23.133056
      },
      {
        "code": "81T770",
        "name": "大豐",
        "city": "花蓮縣",
        "lon": 121.376111,
        "lat": 23.607222
      },
      {
        "code": "81T850",
        "name": "溪口國小",
        "city": "花蓮縣",
        "lon": 121.473333,
        "lat": 23.819722
      },
      {
        "code": "81T860",
        "name": "山興分校",
        "city": "花蓮縣",
        "lon": 121.4975,
        "lat": 23.727778
      },
      {
        "code": "81T870",
        "name": "東興部落",
        "city": "花蓮縣",
        "lon": 121.530893,
        "lat": 23.635204
      },
      {
        "code": "81T880",
        "name": "石梯坪",
        "city": "花蓮縣",
        "lon": 121.511389,
        "lat": 23.483056
      },
      {
        "code": "81T890",
        "name": "瑞北國小",
        "city": "花蓮縣",
        "lon": 121.376111,
        "lat": 23.525556
      },
      {
        "code": "81T900",
        "name": "卓溪國小",
        "city": "花蓮縣",
        "lon": 121.303333,
        "lat": 23.345833
      },
      {
        "code": "81T910",
        "name": "東里國中",
        "city": "花蓮縣",
        "lon": 121.303056,
        "lat": 23.263333
      },
      {
        "code": "81T990",
        "name": "高山部落",
        "city": "花蓮縣",
        "lon": 121.549444,
        "lat": 23.691944
      },
      {
        "code": "81T9J0",
        "name": "鳳義坑",
        "city": "花蓮縣",
        "lon": 121.42608,
        "lat": 23.740881
      },
      {
        "code": "81U860",
        "name": "金岳國小",
        "city": "宜蘭縣",
        "lon": 121.777318,
        "lat": 24.47039
      },
      {
        "code": "81U870",
        "name": "樂水分校",
        "city": "宜蘭縣",
        "lon": 121.529309,
        "lat": 24.600282
      },
      {
        "code": "81U890",
        "name": "大里國小",
        "city": "宜蘭縣",
        "lon": 121.926111,
        "lat": 24.970278
      },
      {
        "code": "81U900",
        "name": "大溪國小",
        "city": "宜蘭縣",
        "lon": 121.886944,
        "lat": 24.935556
      },
      {
        "code": "81U910",
        "name": "永樂國小",
        "city": "宜蘭縣",
        "lon": 121.844167,
        "lat": 24.575833
      },
      {
        "code": "81V820",
        "name": "建山國小",
        "city": "高雄市",
        "lon": 120.682922,
        "lat": 23.105439
      },
      {
        "code": "81V830",
        "name": "那瑪夏國中",
        "city": "高雄市",
        "lon": 120.696717,
        "lat": 23.240423
      },
      {
        "code": "81V840",
        "name": "新發國小",
        "city": "高雄市",
        "lon": 120.6625,
        "lat": 23.0325
      },
      {
        "code": "81V920",
        "name": "新庄",
        "city": "高雄市",
        "lon": 120.57,
        "lat": 22.982777
      },
      {
        "code": "81V930",
        "name": "竹林",
        "city": "高雄市",
        "lon": 120.738611,
        "lat": 23.107777
      },
      {
        "code": "81V940",
        "name": "寶山部落",
        "city": "高雄市",
        "lon": 120.708987,
        "lat": 23.036563
      },
      {
        "code": "81V950",
        "name": "桃源區公所",
        "city": "高雄市",
        "lon": 120.764326,
        "lat": 23.159204
      },
      {
        "code": "81V960",
        "name": "茂林國小",
        "city": "高雄市",
        "lon": 120.664037,
        "lat": 22.886245
      },
      {
        "code": "88C690",
        "name": "蘇樂",
        "city": "桃園市",
        "lon": 121.356813,
        "lat": 24.700595
      },
      {
        "code": "88D610",
        "name": "下田埔",
        "city": "新竹縣",
        "lon": 121.273103,
        "lat": 24.636062
      },
      {
        "code": "88F920",
        "name": "松鶴",
        "city": "臺中市",
        "lon": 120.978333,
        "lat": 24.178889
      },
      {
        "code": "88H890",
        "name": "南豐",
        "city": "南投縣",
        "lon": 121.088627,
        "lat": 24.017338
      },
      {
        "code": "88K590",
        "name": "華山",
        "city": "雲林縣",
        "lon": 120.596944,
        "lat": 23.595278
      },
      {
        "code": "88O950",
        "name": "羌黃坑",
        "city": "臺南市",
        "lon": 120.536955,
        "lat": 23.07211
      },
      {
        "code": "88R460",
        "name": "來義",
        "city": "屏東縣",
        "lon": 120.676125,
        "lat": 22.525964
      },
      {
        "code": "88S950",
        "name": "大鳥",
        "city": "臺東縣",
        "lon": 120.910278,
        "lat": 22.383056
      },
      {
        "code": "88T830",
        "name": "和中",
        "city": "花蓮縣",
        "lon": 121.741801,
        "lat": 24.270832
      },
      {
        "code": "88T920",
        "name": "大興",
        "city": "花蓮縣",
        "lon": 121.397778,
        "lat": 23.631944
      },
      {
        "code": "88U940",
        "name": "寒溪",
        "city": "宜蘭縣",
        "lon": 121.686944,
        "lat": 24.609167
      },
      {
        "code": "88V560",
        "name": "集來",
        "city": "高雄市",
        "lon": 120.592901,
        "lat": 23.028691
      },
      {
        "code": "A1A9S0",
        "name": "湖田國小",
        "city": "臺北市",
        "lon": 121.538915,
        "lat": 25.168595
      },
      {
        "code": "A1A9T0",
        "name": "大屯國小",
        "city": "臺北市",
        "lon": 121.503915,
        "lat": 25.154997
      },
      {
        "code": "A1A9U0",
        "name": "桃源國中",
        "city": "臺北市",
        "lon": 121.476914,
        "lat": 25.134398
      },
      {
        "code": "A1A9V0",
        "name": "北投國小",
        "city": "臺北市",
        "lon": 121.498913,
        "lat": 25.133897
      },
      {
        "code": "A1A9W0",
        "name": "陽明高中",
        "city": "臺北市",
        "lon": 121.51671,
        "lat": 25.092496
      },
      {
        "code": "A1A9X0",
        "name": "太平國小",
        "city": "臺北市",
        "lon": 121.511708,
        "lat": 25.061696
      },
      {
        "code": "A1A9Y0",
        "name": "民生國中",
        "city": "臺北市",
        "lon": 121.566707,
        "lat": 25.059693
      },
      {
        "code": "A1A9Z0",
        "name": "中正國中",
        "city": "臺北市",
        "lon": 121.521906,
        "lat": 25.031696
      },
      {
        "code": "A1AA00",
        "name": "三興國小",
        "city": "臺北市",
        "lon": 121.558106,
        "lat": 25.029194
      },
      {
        "code": "A1AA10",
        "name": "格致國中",
        "city": "臺北市",
        "lon": 121.545613,
        "lat": 25.131395
      },
      {
        "code": "A1AA20",
        "name": "平等國小",
        "city": "臺北市",
        "lon": 121.576412,
        "lat": 25.129193
      },
      {
        "code": "A1AA30",
        "name": "至善國中",
        "city": "臺北市",
        "lon": 121.555611,
        "lat": 25.103294
      },
      {
        "code": "A1AA40",
        "name": "碧湖國小",
        "city": "臺北市",
        "lon": 121.591709,
        "lat": 25.084692
      },
      {
        "code": "A1AA50",
        "name": "東湖國小",
        "city": "臺北市",
        "lon": 121.615007,
        "lat": 25.069191
      },
      {
        "code": "A1AA60",
        "name": "瑠公國中",
        "city": "臺北市",
        "lon": 121.585606,
        "lat": 25.037192
      },
      {
        "code": "A1AA70",
        "name": "舊莊國小",
        "city": "臺北市",
        "lon": 121.619405,
        "lat": 25.039991
      },
      {
        "code": "A1AA80",
        "name": "市政中心",
        "city": "臺北市",
        "lon": 121.556406,
        "lat": 25.038894
      },
      {
        "code": "A1AA90",
        "name": "博嘉國小",
        "city": "臺北市",
        "lon": 121.575304,
        "lat": 25.002193
      },
      {
        "code": "A1AB00",
        "name": "北政國中",
        "city": "臺北市",
        "lon": 121.577502,
        "lat": 24.984393
      },
      {
        "code": "A1AB10",
        "name": "埤腹",
        "city": "臺北市",
        "lon": 121.545303,
        "lat": 24.986395
      },
      {
        "code": "A1AB20",
        "name": "雙園",
        "city": "臺北市",
        "lon": 121.490307,
        "lat": 25.030298
      },
      {
        "code": "A1AB30",
        "name": "中洲",
        "city": "臺北市",
        "lon": 121.474712,
        "lat": 25.105298
      },
      {
        "code": "A1AB40",
        "name": "玉成",
        "city": "臺北市",
        "lon": 121.582507,
        "lat": 25.052193
      },
      {
        "code": "A1AB50",
        "name": "建國",
        "city": "臺北市",
        "lon": 121.528909,
        "lat": 25.072195
      },
      {
        "code": "A1AB60",
        "name": "福德",
        "city": "臺北市",
        "lon": 121.528911,
        "lat": 25.099395
      },
      {
        "code": "A1AB70",
        "name": "奇岩",
        "city": "臺北市",
        "lon": 121.503113,
        "lat": 25.123897
      },
      {
        "code": "A1AB80",
        "name": "雙溪",
        "city": "臺北市",
        "lon": 121.569411,
        "lat": 25.113593
      },
      {
        "code": "A1AC40",
        "name": "指南里",
        "city": "臺北市",
        "lon": 121.580302,
        "lat": 24.981493
      },
      {
        "code": "A1AC50",
        "name": "舊莊里",
        "city": "臺北市",
        "lon": 121.624705,
        "lat": 25.03399
      },
      {
        "code": "A1AC60",
        "name": "九如里",
        "city": "臺北市",
        "lon": 121.611605,
        "lat": 25.032491
      },
      {
        "code": "A1AC70",
        "name": "挹翠山莊",
        "city": "臺北市",
        "lon": 121.574405,
        "lat": 25.017093
      },
      {
        "code": "A1AC80",
        "name": "明德樂園",
        "city": "臺北市",
        "lon": 121.565711,
        "lat": 25.113693
      },
      {
        "code": "A1AC90",
        "name": "溪山里",
        "city": "臺北市",
        "lon": 121.588912,
        "lat": 25.136892
      },
      {
        "code": "A1AD00",
        "name": "菁山里",
        "city": "臺北市",
        "lon": 121.566013,
        "lat": 25.143993
      },
      {
        "code": "A1AD10",
        "name": "擎天崗",
        "city": "臺北市",
        "lon": 121.568014,
        "lat": 25.163293
      },
      {
        "code": "A1AD20",
        "name": "竹子湖",
        "city": "臺北市",
        "lon": 121.528315,
        "lat": 25.168295
      },
      {
        "code": "A1AD30",
        "name": "安泰里",
        "city": "臺北市",
        "lon": 121.613109,
        "lat": 25.087591
      },
      {
        "code": "A1AD40",
        "name": "小油坑",
        "city": "臺北市",
        "lon": 121.548816,
        "lat": 25.180294
      },
      {
        "code": "A1AD50",
        "name": "劍南路",
        "city": "臺北市",
        "lon": 121.55131,
        "lat": 25.089894
      },
      {
        "code": "A1AD60",
        "name": "貓空",
        "city": "臺北市",
        "lon": 121.595301,
        "lat": 24.968892
      },
      {
        "code": "A1AD70",
        "name": "茶製場",
        "city": "臺北市",
        "lon": 121.663304,
        "lat": 25.028388
      },
      {
        "code": "A1AD80",
        "name": "貴子坑",
        "city": "臺北市",
        "lon": 121.489815,
        "lat": 25.155898
      },
      {
        "code": "A1AG20",
        "name": "大湖里",
        "city": "臺北市",
        "lon": 121.604109,
        "lat": 25.096391
      },
      {
        "code": "A1AG30",
        "name": "稻香里",
        "city": "臺北市",
        "lon": 121.483915,
        "lat": 25.147998
      },
      {
        "code": "A1AG40",
        "name": "四獸山",
        "city": "臺北市",
        "lon": 121.582905,
        "lat": 25.029293
      },
      {
        "code": "A1AG50",
        "name": "劍潭山",
        "city": "臺北市",
        "lon": 121.52841,
        "lat": 25.083096
      },
      {
        "code": "A1AG60",
        "name": "福州山",
        "city": "臺北市",
        "lon": 121.554305,
        "lat": 25.016894
      },
      {
        "code": "A1AG70",
        "name": "仙跡岩",
        "city": "臺北市",
        "lon": 121.543203,
        "lat": 24.989295
      },
      {
        "code": "A1AG80",
        "name": "金面山",
        "city": "臺北市",
        "lon": 121.56991,
        "lat": 25.094893
      },
      {
        "code": "F1M710",
        "name": "二萬坪",
        "city": "嘉義縣",
        "lon": 120.79,
        "lat": 23.509597
      },
      {
        "code": "F1V850",
        "name": "六龜",
        "city": "高雄市",
        "lon": 120.692997,
        "lat": 23.0805
      },
      {
        "code": "F1V860",
        "name": "甲仙",
        "city": "高雄市",
        "lon": 120.575997,
        "lat": 23.087497
      },
      {
        "code": "L1A790",
        "name": "翡翠",
        "city": "新北市",
        "lon": 121.580097,
        "lat": 24.907093
      },
      {
        "code": "L1A800",
        "name": "碧湖",
        "city": "新北市",
        "lon": 121.745694,
        "lat": 24.892584
      },
      {
        "code": "L1A810",
        "name": "九芎根",
        "city": "新北市",
        "lon": 121.649896,
        "lat": 24.902389
      },
      {
        "code": "L1A820",
        "name": "十三股",
        "city": "新北市",
        "lon": 121.649599,
        "lat": 24.943989
      },
      {
        "code": "L1A830",
        "name": "坪林",
        "city": "新北市",
        "lon": 121.713797,
        "lat": 24.936785
      },
      {
        "code": "L1A840",
        "name": "太平",
        "city": "新北市",
        "lon": 121.828198,
        "lat": 24.971779
      },
      {
        "code": "NUP460",
        "name": "平溪旅遊",
        "city": "新北市",
        "lon": 121.773797,
        "lat": 25.048418
      },
      {
        "code": "NUP490",
        "name": "復興國小",
        "city": "基隆市",
        "lon": 121.657791,
        "lat": 25.109012
      },
      {
        "code": "NUP810",
        "name": "員山子",
        "city": "新北市",
        "lon": 121.814722,
        "lat": 25.108056
      },
      {
        "code": "O1AH20",
        "name": "上林國小",
        "city": "新北市",
        "lon": 121.832514,
        "lat": 25.029351
      },
      {
        "code": "O1AH30",
        "name": "吉林國小",
        "city": "新北市",
        "lon": 121.887489,
        "lat": 24.985827
      },
      {
        "code": "O1D570",
        "name": "新城國小",
        "city": "新竹縣",
        "lon": 120.967392,
        "lat": 24.73339
      },
      {
        "code": "O1D580",
        "name": "內湖國小",
        "city": "新竹市",
        "lon": 120.906944,
        "lat": 24.742156
      },
      {
        "code": "O1D590",
        "name": "成德中學",
        "city": "新竹市",
        "lon": 120.952712,
        "lat": 24.789844
      },
      {
        "code": "O1F390",
        "name": "雙崎(2)",
        "city": "臺中市",
        "lon": 120.910107,
        "lat": 24.292326
      },
      {
        "code": "O1H540",
        "name": "龍神橋",
        "city": "南投縣",
        "lon": 120.871686,
        "lat": 23.779975
      },
      {
        "code": "O1I360",
        "name": "楠溪",
        "city": "南投縣",
        "lon": 120.907956,
        "lat": 23.472849
      },
      {
        "code": "O1J810",
        "name": "北港(2)",
        "city": "雲林縣",
        "lon": 120.301903,
        "lat": 23.577934
      },
      {
        "code": "O1M640",
        "name": "豐山",
        "city": "嘉義縣",
        "lon": 120.746747,
        "lat": 23.574615
      },
      {
        "code": "O1M650",
        "name": "外來吉",
        "city": "嘉義縣",
        "lon": 120.739968,
        "lat": 23.529649
      },
      {
        "code": "O1N1A0",
        "name": "大竹坑",
        "city": "臺南市",
        "lon": 120.576962,
        "lat": 23.141727
      },
      {
        "code": "O1P470",
        "name": "旗山(4)",
        "city": "高雄市",
        "lon": 120.481673,
        "lat": 22.879521
      },
      {
        "code": "O1R450",
        "name": "新豐(1)",
        "city": "屏東縣",
        "lon": 120.617155,
        "lat": 22.855418
      },
      {
        "code": "O1R620",
        "name": "新庄國小",
        "city": "屏東縣",
        "lon": 120.488328,
        "lat": 22.560122
      },
      {
        "code": "O1R630",
        "name": "崁頂",
        "city": "屏東縣",
        "lon": 120.511111,
        "lat": 22.513226
      },
      {
        "code": "O1S120",
        "name": "鹿鳴橋",
        "city": "臺東縣",
        "lon": 121.086481,
        "lat": 22.898621
      },
      {
        "code": "O1S650",
        "name": "利吉國小",
        "city": "臺東縣",
        "lon": 121.139022,
        "lat": 22.838676
      },
      {
        "code": "O1S660",
        "name": "賓茂國小",
        "city": "臺東縣",
        "lon": 120.954393,
        "lat": 22.532409
      },
      {
        "code": "O1S680",
        "name": "金針山",
        "city": "臺東縣",
        "lon": 120.952564,
        "lat": 22.642801
      },
      {
        "code": "O1S690",
        "name": "神山",
        "city": "屏東縣",
        "lon": 120.728297,
        "lat": 22.748999
      },
      {
        "code": "O1T800",
        "name": "奇美國小",
        "city": "花蓮縣",
        "lon": 121.445929,
        "lat": 23.496927
      },
      {
        "code": "O1T810",
        "name": "卓清國小",
        "city": "花蓮縣",
        "lon": 121.271983,
        "lat": 23.278428
      },
      {
        "code": "O1T820",
        "name": "太平國小",
        "city": "花蓮縣",
        "lon": 121.320127,
        "lat": 23.405748
      },
      {
        "code": "O1T840",
        "name": "花蓮",
        "city": "花蓮縣",
        "lon": 121.605986,
        "lat": 23.972934
      },
      {
        "code": "O1V510",
        "name": "寶山",
        "city": "高雄市",
        "lon": 120.708888,
        "lat": 23.036624
      },
      {
        "code": "O1V520",
        "name": "民權",
        "city": "高雄市",
        "lon": 120.696723,
        "lat": 23.240357
      },
      {
        "code": "O1V540",
        "name": "高中(2)",
        "city": "高雄市",
        "lon": 120.703273,
        "lat": 23.110591
      },
      {
        "code": "O1V550",
        "name": "多納(1)",
        "city": "高雄市",
        "lon": 120.716048,
        "lat": 22.910218
      },
      {
        "code": "O1V810",
        "name": "溝坪",
        "city": "高雄市",
        "lon": 120.509017,
        "lat": 22.990682
      },
      {
        "code": "O1V820",
        "name": "圓富國中",
        "city": "高雄市",
        "lon": 120.509127,
        "lat": 22.926574
      }
    ]
  },
  "自動雨量站": {
    "雨量": [
      {
        "code": "C1A630",
        "name": "下盆",
        "city": "新北市",
        "lon": 121.538622,
        "lat": 24.771003
      },
      {
        "code": "C1A750",
        "name": "石碇服務區",
        "city": "新北市",
        "lon": 121.646242,
        "lat": 25.00865
      },
      {
        "code": "C1A760",
        "name": "坪林交控",
        "city": "新北市",
        "lon": 121.713442,
        "lat": 24.942842
      },
      {
        "code": "C1A9N0",
        "name": "四十份",
        "city": "新北市",
        "lon": 121.593283,
        "lat": 24.934158
      },
      {
        "code": "C1AC50",
        "name": "關渡",
        "city": "臺北市",
        "lon": 121.469331,
        "lat": 25.133486
      },
      {
        "code": "C1AI50",
        "name": "國三N016K",
        "city": "臺北市",
        "lon": 121.619664,
        "lat": 25.034164
      },
      {
        "code": "C1AI60",
        "name": "國一39K邊坡",
        "city": "新北市",
        "lon": 121.383836,
        "lat": 25.064361
      },
      {
        "code": "C1C510",
        "name": "水尾",
        "city": "桃園市",
        "lon": 121.087161,
        "lat": 24.940081
      },
      {
        "code": "C1D380",
        "name": "新埔",
        "city": "新竹縣",
        "lon": 121.038344,
        "lat": 24.847447
      },
      {
        "code": "C1D400",
        "name": "鳥嘴山",
        "city": "新竹縣",
        "lon": 121.283872,
        "lat": 24.719092
      },
      {
        "code": "C1D410",
        "name": "白蘭",
        "city": "新竹縣",
        "lon": 121.079947,
        "lat": 24.579364
      },
      {
        "code": "C1D420",
        "name": "太閣南",
        "city": "新竹縣",
        "lon": 121.160575,
        "lat": 24.632808
      },
      {
        "code": "C1D630",
        "name": "飛鳳山",
        "city": "新竹縣",
        "lon": 121.119178,
        "lat": 24.766464
      },
      {
        "code": "C1D640",
        "name": "外坪(五指山)",
        "city": "新竹縣",
        "lon": 121.090961,
        "lat": 24.644447
      },
      {
        "code": "C1E451",
        "name": "象鼻",
        "city": "苗栗縣",
        "lon": 120.940228,
        "lat": 24.368617
      },
      {
        "code": "C1E461",
        "name": "松安",
        "city": "苗栗縣",
        "lon": 120.986022,
        "lat": 24.397972
      },
      {
        "code": "C1E480",
        "name": "鳳美",
        "city": "苗栗縣",
        "lon": 121.034747,
        "lat": 24.554803
      },
      {
        "code": "C1E511",
        "name": "新開",
        "city": "苗栗縣",
        "lon": 120.827019,
        "lat": 24.347703
      },
      {
        "code": "C1E601",
        "name": "南勢",
        "city": "苗栗縣",
        "lon": 120.734842,
        "lat": 24.572486
      },
      {
        "code": "C1E670",
        "name": "南礦",
        "city": "苗栗縣",
        "lon": 121.002836,
        "lat": 24.538278
      },
      {
        "code": "C1E681",
        "name": "南勢山",
        "city": "苗栗縣",
        "lon": 120.923831,
        "lat": 24.421669
      },
      {
        "code": "C1E691",
        "name": "南湖",
        "city": "苗栗縣",
        "lon": 120.837533,
        "lat": 24.40135
      },
      {
        "code": "C1E701",
        "name": "八卦",
        "city": "苗栗縣",
        "lon": 120.927619,
        "lat": 24.491756
      },
      {
        "code": "C1E711",
        "name": "馬拉邦山",
        "city": "苗栗縣",
        "lon": 120.901656,
        "lat": 24.367306
      },
      {
        "code": "C1E721",
        "name": "泰安",
        "city": "苗栗縣",
        "lon": 120.968036,
        "lat": 24.489017
      },
      {
        "code": "C1E770",
        "name": "公館",
        "city": "苗栗縣",
        "lon": 120.830806,
        "lat": 24.526914
      },
      {
        "code": "C1E890",
        "name": "國三N149K",
        "city": "苗栗縣",
        "lon": 120.680019,
        "lat": 24.463414
      },
      {
        "code": "C1E900",
        "name": "國一N128K",
        "city": "苗栗縣",
        "lon": 120.844186,
        "lat": 24.560997
      },
      {
        "code": "C1F871",
        "name": "上谷關",
        "city": "臺中市",
        "lon": 121.018644,
        "lat": 24.203483
      },
      {
        "code": "C1F891",
        "name": "稍來",
        "city": "臺中市",
        "lon": 121.001142,
        "lat": 24.265689
      },
      {
        "code": "C1F911",
        "name": "新伯公",
        "city": "臺中市",
        "lon": 120.841069,
        "lat": 24.221361
      },
      {
        "code": "C1F941",
        "name": "雪嶺",
        "city": "臺中市",
        "lon": 121.026642,
        "lat": 24.280586
      },
      {
        "code": "C1F9B1",
        "name": "桐林",
        "city": "臺中市",
        "lon": 120.735194,
        "lat": 24.066172
      },
      {
        "code": "C1F9C1",
        "name": "白冷",
        "city": "臺中市",
        "lon": 120.929889,
        "lat": 24.182844
      },
      {
        "code": "C1F9D1",
        "name": "白毛台",
        "city": "臺中市",
        "lon": 120.886933,
        "lat": 24.158325
      },
      {
        "code": "C1F9E1",
        "name": "龍安",
        "city": "臺中市",
        "lon": 120.831961,
        "lat": 24.1605
      },
      {
        "code": "C1F9F1",
        "name": "伯公龍",
        "city": "臺中市",
        "lon": 120.849047,
        "lat": 24.272392
      },
      {
        "code": "C1F9G1",
        "name": "慶福山",
        "city": "臺中市",
        "lon": 120.848378,
        "lat": 24.180853
      },
      {
        "code": "C1F9J1",
        "name": "清水林",
        "city": "臺中市",
        "lon": 120.820419,
        "lat": 24.071242
      },
      {
        "code": "C1F9W0",
        "name": "德基",
        "city": "臺中市",
        "lon": 121.190261,
        "lat": 24.254783
      },
      {
        "code": "C1G691",
        "name": "下水埔",
        "city": "彰化縣",
        "lon": 120.5676,
        "lat": 23.816114
      },
      {
        "code": "C1G9D0",
        "name": "國一S218K",
        "city": "彰化縣",
        "lon": 120.493253,
        "lat": 23.890642
      },
      {
        "code": "C1H000",
        "name": "翠峰",
        "city": "南投縣",
        "lon": 121.205211,
        "lat": 24.109397
      },
      {
        "code": "C1H840",
        "name": "國三N238K",
        "city": "南投縣",
        "lon": 120.707711,
        "lat": 23.841008
      },
      {
        "code": "C1H900",
        "name": "清流",
        "city": "南投縣",
        "lon": 120.962997,
        "lat": 24.080775
      },
      {
        "code": "C1H920",
        "name": "長豐",
        "city": "南投縣",
        "lon": 120.879897,
        "lat": 24.102039
      },
      {
        "code": "C1H941",
        "name": "雙冬",
        "city": "南投縣",
        "lon": 120.802189,
        "lat": 23.967378
      },
      {
        "code": "C1H971",
        "name": "六分寮",
        "city": "南投縣",
        "lon": 120.637797,
        "lat": 23.925069
      },
      {
        "code": "C1H9B1",
        "name": "阿眉",
        "city": "南投縣",
        "lon": 120.994672,
        "lat": 24.1263
      },
      {
        "code": "C1I020",
        "name": "萬大",
        "city": "南投縣",
        "lon": 121.132261,
        "lat": 23.979817
      },
      {
        "code": "C1I030",
        "name": "武界",
        "city": "南投縣",
        "lon": 121.052483,
        "lat": 23.913225
      },
      {
        "code": "C1I050",
        "name": "丹大",
        "city": "南投縣",
        "lon": 121.141147,
        "lat": 23.753747
      },
      {
        "code": "C1I070",
        "name": "和社",
        "city": "南投縣",
        "lon": 120.888861,
        "lat": 23.591131
      },
      {
        "code": "C1I101",
        "name": "溪頭",
        "city": "南投縣",
        "lon": 120.807647,
        "lat": 23.661789
      },
      {
        "code": "C1I121",
        "name": "大鞍",
        "city": "南投縣",
        "lon": 120.760017,
        "lat": 23.678381
      },
      {
        "code": "C1I131",
        "name": "桶頭",
        "city": "南投縣",
        "lon": 120.654117,
        "lat": 23.641944
      },
      {
        "code": "C1I140",
        "name": "卡奈托灣",
        "city": "南投縣",
        "lon": 121.087872,
        "lat": 23.754364
      },
      {
        "code": "C1I150",
        "name": "青雲",
        "city": "南投縣",
        "lon": 120.949378,
        "lat": 23.793361
      },
      {
        "code": "C1I201",
        "name": "中心崙",
        "city": "南投縣",
        "lon": 120.712097,
        "lat": 23.728722
      },
      {
        "code": "C1I211",
        "name": "蘆竹湳",
        "city": "南投縣",
        "lon": 120.811994,
        "lat": 23.934019
      },
      {
        "code": "C1I220",
        "name": "樟湖",
        "city": "南投縣",
        "lon": 120.846983,
        "lat": 23.905333
      },
      {
        "code": "C1I230",
        "name": "九份二山",
        "city": "南投縣",
        "lon": 120.845272,
        "lat": 23.962025
      },
      {
        "code": "C1I240",
        "name": "外大坪",
        "city": "南投縣",
        "lon": 120.917931,
        "lat": 23.958697
      },
      {
        "code": "C1I250",
        "name": "鯉潭",
        "city": "南投縣",
        "lon": 120.991131,
        "lat": 23.961922
      },
      {
        "code": "C1I260",
        "name": "北坑",
        "city": "南投縣",
        "lon": 121.006903,
        "lat": 23.9246
      },
      {
        "code": "C1I280",
        "name": "埔中",
        "city": "南投縣",
        "lon": 120.642594,
        "lat": 23.820778
      },
      {
        "code": "C1I290",
        "name": "豐丘",
        "city": "南投縣",
        "lon": 120.887417,
        "lat": 23.668178
      },
      {
        "code": "C1I310",
        "name": "西巒",
        "city": "南投縣",
        "lon": 120.883956,
        "lat": 23.754486
      },
      {
        "code": "C1I320",
        "name": "奧萬大",
        "city": "南投縣",
        "lon": 121.178556,
        "lat": 23.952956
      },
      {
        "code": "C1I330",
        "name": "楓樹林",
        "city": "南投縣",
        "lon": 121.076117,
        "lat": 23.986803
      },
      {
        "code": "C1I340",
        "name": "新興橋",
        "city": "南投縣",
        "lon": 120.86794,
        "lat": 23.564056
      },
      {
        "code": "C1I400",
        "name": "凌霄",
        "city": "南投縣",
        "lon": 121.004456,
        "lat": 24.018778
      },
      {
        "code": "C1I430",
        "name": "翠華",
        "city": "南投縣",
        "lon": 121.224339,
        "lat": 24.191961
      },
      {
        "code": "C1I440",
        "name": "新高口",
        "city": "南投縣",
        "lon": 120.878939,
        "lat": 23.478744
      },
      {
        "code": "C1I450",
        "name": "望鄉山",
        "city": "南投縣",
        "lon": 120.944286,
        "lat": 23.594153
      },
      {
        "code": "C1I470",
        "name": "杉林溪",
        "city": "南投縣",
        "lon": 120.786444,
        "lat": 23.639517
      },
      {
        "code": "C1I500",
        "name": "大尖山",
        "city": "南投縣",
        "lon": 120.994889,
        "lat": 23.858572
      },
      {
        "code": "C1I510",
        "name": "線浸林道",
        "city": "南投縣",
        "lon": 120.832956,
        "lat": 23.761508
      },
      {
        "code": "C1I550",
        "name": "國六W023K",
        "city": "南投縣",
        "lon": 120.867742,
        "lat": 23.979067
      },
      {
        "code": "C1K540",
        "name": "口湖",
        "city": "雲林縣",
        "lon": 120.180517,
        "lat": 23.585344
      },
      {
        "code": "C1M390",
        "name": "龍美",
        "city": "嘉義縣",
        "lon": 120.654278,
        "lat": 23.406194
      },
      {
        "code": "C1M400",
        "name": "菜瓜坪",
        "city": "嘉義縣",
        "lon": 120.57636,
        "lat": 23.25163
      },
      {
        "code": "C1M480",
        "name": "獨立山",
        "city": "嘉義縣",
        "lon": 120.607797,
        "lat": 23.537022
      },
      {
        "code": "C1M600",
        "name": "頭凍",
        "city": "嘉義縣",
        "lon": 120.603339,
        "lat": 23.406364
      },
      {
        "code": "C1M610",
        "name": "石磐龍",
        "city": "嘉義縣",
        "lon": 120.663506,
        "lat": 23.496606
      },
      {
        "code": "C1M640",
        "name": "十字",
        "city": "嘉義縣",
        "lon": 120.753683,
        "lat": 23.492153
      },
      {
        "code": "C1M870",
        "name": "國三N285K",
        "city": "嘉義縣",
        "lon": 120.505833,
        "lat": 23.550319
      },
      {
        "code": "C1N001",
        "name": "沙崙",
        "city": "臺南市",
        "lon": 120.309406,
        "lat": 22.935472
      },
      {
        "code": "C1O850",
        "name": "環湖",
        "city": "臺南市",
        "lon": 120.418633,
        "lat": 23.148617
      },
      {
        "code": "C1O870",
        "name": "大棟山",
        "city": "臺南市",
        "lon": 120.522264,
        "lat": 23.311567
      },
      {
        "code": "C1O880",
        "name": "關山",
        "city": "臺南市",
        "lon": 120.594092,
        "lat": 23.173397
      },
      {
        "code": "C1O921",
        "name": "楠西",
        "city": "臺南市",
        "lon": 120.484083,
        "lat": 23.183511
      },
      {
        "code": "C1O940",
        "name": "東山服務區",
        "city": "臺南市",
        "lon": 120.398472,
        "lat": 23.286017
      },
      {
        "code": "C1R110",
        "name": "口社",
        "city": "屏東縣",
        "lon": 120.645222,
        "lat": 22.770111
      },
      {
        "code": "C1R120",
        "name": "上德文",
        "city": "屏東縣",
        "lon": 120.704442,
        "lat": 22.763272
      },
      {
        "code": "C1R250",
        "name": "力里",
        "city": "屏東縣",
        "lon": 120.629228,
        "lat": 22.428117
      },
      {
        "code": "C1R290",
        "name": "石門山",
        "city": "屏東縣",
        "lon": 120.756597,
        "lat": 22.112611
      },
      {
        "code": "C1R610",
        "name": "西大武山",
        "city": "屏東縣",
        "lon": 120.7322,
        "lat": 22.617719
      },
      {
        "code": "C1R630",
        "name": "龍泉",
        "city": "屏東縣",
        "lon": 120.590911,
        "lat": 22.667011
      },
      {
        "code": "C1S670",
        "name": "摩天",
        "city": "臺東縣",
        "lon": 121.027,
        "lat": 23.199503
      },
      {
        "code": "C1S800",
        "name": "華源",
        "city": "臺東縣",
        "lon": 121.02325,
        "lat": 22.657883
      },
      {
        "code": "C1S820",
        "name": "金峰",
        "city": "臺東縣",
        "lon": 120.933236,
        "lat": 22.590969
      },
      {
        "code": "C1S850",
        "name": "豐南",
        "city": "花蓮縣",
        "lon": 121.262389,
        "lat": 23.122139
      },
      {
        "code": "C1S860",
        "name": "利嘉",
        "city": "臺東縣",
        "lon": 121.050528,
        "lat": 22.809417
      },
      {
        "code": "C1S870",
        "name": "南美山",
        "city": "臺東縣",
        "lon": 121.382333,
        "lat": 23.15025
      },
      {
        "code": "C1S880",
        "name": "壽卡",
        "city": "臺東縣",
        "lon": 120.858903,
        "lat": 22.238911
      },
      {
        "code": "C1SA50",
        "name": "利嘉林道",
        "city": "臺東縣",
        "lon": 121.009389,
        "lat": 22.82325
      },
      {
        "code": "C1SA70",
        "name": "都蘭",
        "city": "臺東縣",
        "lon": 121.226892,
        "lat": 22.877936
      },
      {
        "code": "C1T800",
        "name": "洛韶",
        "city": "花蓮縣",
        "lon": 121.453956,
        "lat": 24.204558
      },
      {
        "code": "C1T810",
        "name": "慈恩",
        "city": "花蓮縣",
        "lon": 121.388386,
        "lat": 24.192044
      },
      {
        "code": "C1T830",
        "name": "布洛灣",
        "city": "花蓮縣",
        "lon": 121.571269,
        "lat": 24.171842
      },
      {
        "code": "C1T920",
        "name": "中興",
        "city": "花蓮縣",
        "lon": 121.498653,
        "lat": 23.769503
      },
      {
        "code": "C1T940",
        "name": "大觀",
        "city": "花蓮縣",
        "lon": 121.373133,
        "lat": 23.714206
      },
      {
        "code": "C1T950",
        "name": "太安",
        "city": "花蓮縣",
        "lon": 121.370128,
        "lat": 23.666719
      },
      {
        "code": "C1T970",
        "name": "大農",
        "city": "花蓮縣",
        "lon": 121.413331,
        "lat": 23.615233
      },
      {
        "code": "C1T980",
        "name": "龍澗",
        "city": "花蓮縣",
        "lon": 121.411328,
        "lat": 24.023289
      },
      {
        "code": "C1T990",
        "name": "高寮",
        "city": "花蓮縣",
        "lon": 121.356808,
        "lat": 23.394239
      },
      {
        "code": "C1TA00",
        "name": "太魯閣",
        "city": "花蓮縣",
        "lon": 121.623597,
        "lat": 24.157728
      },
      {
        "code": "C1U501",
        "name": "牛鬥",
        "city": "宜蘭縣",
        "lon": 121.573656,
        "lat": 24.637836
      },
      {
        "code": "C1U670",
        "name": "寒溪",
        "city": "宜蘭縣",
        "lon": 121.716908,
        "lat": 24.634003
      },
      {
        "code": "C1U840",
        "name": "東澳嶺",
        "city": "宜蘭縣",
        "lon": 121.8485,
        "lat": 24.5378
      },
      {
        "code": "C1U850",
        "name": "觀音海岸",
        "city": "宜蘭縣",
        "lon": 121.778556,
        "lat": 24.383194
      },
      {
        "code": "C1U920",
        "name": "思源",
        "city": "宜蘭縣",
        "lon": 121.347214,
        "lat": 24.393125
      },
      {
        "code": "C1U930",
        "name": "粉鳥林",
        "city": "宜蘭縣",
        "lon": 121.842481,
        "lat": 24.497089
      },
      {
        "code": "C1V160",
        "name": "達卡努瓦",
        "city": "高雄市",
        "lon": 120.705319,
        "lat": 23.279811
      },
      {
        "code": "C1V170",
        "name": "排雲",
        "city": "高雄市",
        "lon": 120.954147,
        "lat": 23.463619
      },
      {
        "code": "C1V190",
        "name": "南天池",
        "city": "高雄市",
        "lon": 120.911764,
        "lat": 23.274033
      },
      {
        "code": "C1V200",
        "name": "梅山",
        "city": "高雄市",
        "lon": 120.823556,
        "lat": 23.268447
      },
      {
        "code": "C1V220",
        "name": "小關山",
        "city": "高雄市",
        "lon": 120.813603,
        "lat": 23.154217
      },
      {
        "code": "C1V231",
        "name": "高中",
        "city": "高雄市",
        "lon": 120.716711,
        "lat": 23.134911
      },
      {
        "code": "C1V300",
        "name": "御油山",
        "city": "高雄市",
        "lon": 120.715364,
        "lat": 23.001983
      },
      {
        "code": "C1V340",
        "name": "大津",
        "city": "高雄市",
        "lon": 120.645986,
        "lat": 22.888322
      },
      {
        "code": "C1V390",
        "name": "尖山",
        "city": "高雄市",
        "lon": 120.367789,
        "lat": 22.813153
      },
      {
        "code": "C1V570",
        "name": "吉東",
        "city": "高雄市",
        "lon": 120.5454,
        "lat": 22.854222
      },
      {
        "code": "C1V580",
        "name": "溪南(特生中心)",
        "city": "高雄市",
        "lon": 120.788475,
        "lat": 23.084972
      },
      {
        "code": "C1V590",
        "name": "新發",
        "city": "高雄市",
        "lon": 120.646064,
        "lat": 23.057019
      },
      {
        "code": "C1V600",
        "name": "藤枝",
        "city": "高雄市",
        "lon": 120.757042,
        "lat": 23.071961
      },
      {
        "code": "C1V780",
        "name": "多納林道",
        "city": "高雄市",
        "lon": 120.737917,
        "lat": 22.888028
      },
      {
        "code": "C1V830",
        "name": "國三S383K",
        "city": "高雄市",
        "lon": 120.426475,
        "lat": 22.781967
      },
      {
        "code": "C1X040",
        "name": "東原",
        "city": "臺南市",
        "lon": 120.463822,
        "lat": 23.291597
      },
      {
        "code": "C1Z030",
        "name": "紅葉",
        "city": "花蓮縣",
        "lon": 121.338806,
        "lat": 23.493119
      },
      {
        "code": "C1Z040",
        "name": "立山",
        "city": "花蓮縣",
        "lon": 121.327375,
        "lat": 23.443356
      },
      {
        "code": "C1Z110",
        "name": "三棧",
        "city": "花蓮縣",
        "lon": 121.605006,
        "lat": 24.115569
      },
      {
        "code": "C1Z120",
        "name": "壽豐",
        "city": "花蓮縣",
        "lon": 121.508081,
        "lat": 23.870853
      },
      {
        "code": "C1Z130",
        "name": "銅門",
        "city": "花蓮縣",
        "lon": 121.492842,
        "lat": 23.965694
      },
      {
        "code": "C1Z140",
        "name": "荖溪",
        "city": "花蓮縣",
        "lon": 121.459639,
        "lat": 23.890575
      },
      {
        "code": "C1Z240",
        "name": "中平林道",
        "city": "花蓮縣",
        "lon": 121.267631,
        "lat": 23.421147
      }
    ]
  },
  "自動氣象站": {
    "溫度、濕度": [
      {
        "code": "C0A520",
        "name": "山佳",
        "city": "新北市",
        "lon": 121.402008,
        "lat": 24.974944
      },
      {
        "code": "C0A530",
        "name": "坪林",
        "city": "新北市",
        "lon": 121.70975,
        "lat": 24.938183
      },
      {
        "code": "C0A550",
        "name": "泰平",
        "city": "新北市",
        "lon": 121.823711,
        "lat": 24.971197
      },
      {
        "code": "C0A570",
        "name": "桶後",
        "city": "新北市",
        "lon": 121.597992,
        "lat": 24.848222
      },
      {
        "code": "C0A640",
        "name": "石碇",
        "city": "新北市",
        "lon": 121.662917,
        "lat": 24.993969
      },
      {
        "code": "C0A770",
        "name": "科教館",
        "city": "臺北市",
        "lon": 121.516506,
        "lat": 25.096356
      },
      {
        "code": "C0A860",
        "name": "大坪",
        "city": "新北市",
        "lon": 121.632969,
        "lat": 25.165914
      },
      {
        "code": "C0A870",
        "name": "五指山",
        "city": "新北市",
        "lon": 121.608692,
        "lat": 25.132153
      },
      {
        "code": "C0A890",
        "name": "雙溪",
        "city": "新北市",
        "lon": 121.864242,
        "lat": 25.036003
      },
      {
        "code": "C0A931",
        "name": "三和",
        "city": "新北市",
        "lon": 121.595236,
        "lat": 25.233153
      },
      {
        "code": "C0A940",
        "name": "金山",
        "city": "新北市",
        "lon": 121.643967,
        "lat": 25.223628
      },
      {
        "code": "C0A950",
        "name": "鼻頭角",
        "city": "新北市",
        "lon": 121.923372,
        "lat": 25.129036
      },
      {
        "code": "C0A970",
        "name": "三貂角",
        "city": "新北市",
        "lon": 122.002058,
        "lat": 25.007606
      },
      {
        "code": "C0A980",
        "name": "社子",
        "city": "臺北市",
        "lon": 121.469681,
        "lat": 25.109508
      },
      {
        "code": "C0A9C0",
        "name": "天母",
        "city": "臺北市",
        "lon": 121.537169,
        "lat": 25.117494
      },
      {
        "code": "C0A9F0",
        "name": "內湖",
        "city": "臺北市",
        "lon": 121.57545,
        "lat": 25.079422
      },
      {
        "code": "C0AC40",
        "name": "大屯山",
        "city": "臺北市",
        "lon": 121.522408,
        "lat": 25.175675
      },
      {
        "code": "C0AC60",
        "name": "三峽",
        "city": "新北市",
        "lon": 121.369728,
        "lat": 24.939025
      },
      {
        "code": "C0AC70",
        "name": "信義",
        "city": "臺北市",
        "lon": 121.564597,
        "lat": 25.037822
      },
      {
        "code": "C0AC80",
        "name": "文山",
        "city": "臺北市",
        "lon": 121.575728,
        "lat": 25.00235
      },
      {
        "code": "C0ACA0",
        "name": "新莊",
        "city": "新北市",
        "lon": 121.446756,
        "lat": 25.051478
      },
      {
        "code": "C0AD10",
        "name": "八里",
        "city": "新北市",
        "lon": 121.403947,
        "lat": 25.150211
      },
      {
        "code": "C0AD30",
        "name": "蘆洲",
        "city": "新北市",
        "lon": 121.472331,
        "lat": 25.086594
      },
      {
        "code": "C0AD40",
        "name": "土城",
        "city": "新北市",
        "lon": 121.445169,
        "lat": 24.973208
      },
      {
        "code": "C0AD50",
        "name": "鶯歌",
        "city": "新北市",
        "lon": 121.346294,
        "lat": 24.951533
      },
      {
        "code": "C0AG80",
        "name": "中和",
        "city": "新北市",
        "lon": 121.491792,
        "lat": 24.991622
      },
      {
        "code": "C0AH00",
        "name": "汐止",
        "city": "新北市",
        "lon": 121.658778,
        "lat": 25.066881
      },
      {
        "code": "C0AH10",
        "name": "永和",
        "city": "新北市",
        "lon": 121.508111,
        "lat": 25.01125
      },
      {
        "code": "C0AH30",
        "name": "五分山",
        "city": "新北市",
        "lon": 121.780794,
        "lat": 25.07125
      },
      {
        "code": "C0AH40",
        "name": "平等",
        "city": "臺北市",
        "lon": 121.577086,
        "lat": 25.129142
      },
      {
        "code": "C0AH50",
        "name": "林口",
        "city": "新北市",
        "lon": 121.380839,
        "lat": 25.072181
      },
      {
        "code": "C0AH70",
        "name": "松山",
        "city": "臺北市",
        "lon": 121.550428,
        "lat": 25.048711
      },
      {
        "code": "C0AH80",
        "name": "深坑",
        "city": "新北市",
        "lon": 121.628328,
        "lat": 25.002703
      },
      {
        "code": "C0AH90",
        "name": "福山植物園",
        "city": "新北市",
        "lon": 121.58135,
        "lat": 24.760717
      },
      {
        "code": "C0AI00",
        "name": "五股",
        "city": "新北市",
        "lon": 121.427281,
        "lat": 25.074453
      },
      {
        "code": "C0AI10",
        "name": "屈尺",
        "city": "新北市",
        "lon": 121.544725,
        "lat": 24.921836
      },
      {
        "code": "C0AI20",
        "name": "白沙灣",
        "city": "新北市",
        "lon": 121.519058,
        "lat": 25.283128
      },
      {
        "code": "C0AI30",
        "name": "三重",
        "city": "新北市",
        "lon": 121.500625,
        "lat": 25.057378
      },
      {
        "code": "C0AI40",
        "name": "石牌",
        "city": "臺北市",
        "lon": 121.513139,
        "lat": 25.115597
      },
      {
        "code": "C0AJ20",
        "name": "野柳",
        "city": "新北市",
        "lon": 121.690022,
        "lat": 25.207031
      },
      {
        "code": "C0AJ30",
        "name": "淡水觀海",
        "city": "新北市",
        "lon": 121.408617,
        "lat": 25.184592
      },
      {
        "code": "C0AJ40",
        "name": "石門",
        "city": "新北市",
        "lon": 121.6012,
        "lat": 25.273672
      },
      {
        "code": "C0AJ50",
        "name": "水湳洞",
        "city": "新北市",
        "lon": 121.862239,
        "lat": 25.123697
      },
      {
        "code": "C0AJ60",
        "name": "六塊厝",
        "city": "新北市",
        "lon": 121.448102,
        "lat": 25.240002
      },
      {
        "code": "C0AJ70",
        "name": "田寮",
        "city": "新北市",
        "lon": 121.488597,
        "lat": 25.2698
      },
      {
        "code": "C0AJ80",
        "name": "板橋",
        "city": "新北市",
        "lon": 121.448861,
        "lat": 25.010653
      },
      {
        "code": "C0AJ90",
        "name": "澳底",
        "city": "新北市",
        "lon": 121.925264,
        "lat": 25.055192
      },
      {
        "code": "C0AK10",
        "name": "太平里",
        "city": "新北市",
        "lon": 121.364899,
        "lat": 25.134937
      },
      {
        "code": "C0AK30",
        "name": "硬漢嶺",
        "city": "新北市",
        "lon": 121.426372,
        "lat": 25.136097
      },
      {
        "code": "C0B010",
        "name": "七堵",
        "city": "基隆市",
        "lon": 121.717128,
        "lat": 25.094819
      },
      {
        "code": "C0B020",
        "name": "基隆嶼",
        "city": "基隆市",
        "lon": 121.783914,
        "lat": 25.191408
      },
      {
        "code": "C0B040",
        "name": "大武崙",
        "city": "基隆市",
        "lon": 121.706994,
        "lat": 25.166678
      },
      {
        "code": "C0B050",
        "name": "八斗子",
        "city": "基隆市",
        "lon": 121.791672,
        "lat": 25.144756
      },
      {
        "code": "C0B060",
        "name": "暖暖",
        "city": "基隆市",
        "lon": 121.7403,
        "lat": 25.095742
      },
      {
        "code": "C0C460",
        "name": "復興",
        "city": "桃園市",
        "lon": 121.352281,
        "lat": 24.820208
      },
      {
        "code": "C0C480",
        "name": "桃園",
        "city": "桃園市",
        "lon": 121.323172,
        "lat": 24.992425
      },
      {
        "code": "C0C490",
        "name": "八德",
        "city": "桃園市",
        "lon": 121.283289,
        "lat": 24.928708
      },
      {
        "code": "C0C590",
        "name": "觀音",
        "city": "桃園市",
        "lon": 121.153317,
        "lat": 25.027072
      },
      {
        "code": "C0C620",
        "name": "蘆竹",
        "city": "桃園市",
        "lon": 121.265767,
        "lat": 25.084275
      },
      {
        "code": "C0C630",
        "name": "大溪",
        "city": "桃園市",
        "lon": 121.265547,
        "lat": 24.882853
      },
      {
        "code": "C0C650",
        "name": "平鎮",
        "city": "桃園市",
        "lon": 121.214636,
        "lat": 24.897503
      },
      {
        "code": "C0C660",
        "name": "楊梅",
        "city": "桃園市",
        "lon": 121.143047,
        "lat": 24.912375
      },
      {
        "code": "C0C670",
        "name": "龍潭",
        "city": "桃園市",
        "lon": 121.221389,
        "lat": 24.870056
      },
      {
        "code": "C0C680",
        "name": "龜山",
        "city": "桃園市",
        "lon": 121.386561,
        "lat": 25.028458
      },
      {
        "code": "C0C690",
        "name": "國一五楊N44K",
        "city": "桃園市",
        "lon": 121.340164,
        "lat": 25.063861
      },
      {
        "code": "C0C700",
        "name": "中壢",
        "city": "桃園市",
        "lon": 121.256375,
        "lat": 24.977661
      },
      {
        "code": "C0C710",
        "name": "大溪永福",
        "city": "桃園市",
        "lon": 121.324975,
        "lat": 24.892936
      },
      {
        "code": "C0C720",
        "name": "竹圍",
        "city": "桃園市",
        "lon": 121.239825,
        "lat": 25.112694
      },
      {
        "code": "C0C730",
        "name": "中大臨海站",
        "city": "桃園市",
        "lon": 121.008583,
        "lat": 24.966128
      },
      {
        "code": "C0C740",
        "name": "觀音工業區",
        "city": "桃園市",
        "lon": 121.114858,
        "lat": 25.064767
      },
      {
        "code": "C0C750",
        "name": "新興坑尾",
        "city": "桃園市",
        "lon": 121.097072,
        "lat": 25.006066
      },
      {
        "code": "C0C790",
        "name": "東眼山",
        "city": "桃園市",
        "lon": 121.40888,
        "lat": 24.8284
      },
      {
        "code": "C0C800",
        "name": "四稜",
        "city": "桃園市",
        "lon": 121.4293,
        "lat": 24.64733
      },
      {
        "code": "C0D360",
        "name": "梅花",
        "city": "新竹縣",
        "lon": 121.208558,
        "lat": 24.678347
      },
      {
        "code": "C0D430",
        "name": "峨眉",
        "city": "新竹縣",
        "lon": 121.017189,
        "lat": 24.6905
      },
      {
        "code": "C0D480",
        "name": "打鐵坑",
        "city": "新竹縣",
        "lon": 121.150789,
        "lat": 24.849664
      },
      {
        "code": "C0D540",
        "name": "橫山",
        "city": "新竹縣",
        "lon": 121.116933,
        "lat": 24.711158
      },
      {
        "code": "C0D550",
        "name": "雪霸",
        "city": "新竹縣",
        "lon": 121.11605,
        "lat": 24.526972
      },
      {
        "code": "C0D560",
        "name": "竹東",
        "city": "新竹縣",
        "lon": 121.057881,
        "lat": 24.767147
      },
      {
        "code": "C0D580",
        "name": "寶山",
        "city": "新竹縣",
        "lon": 121.025192,
        "lat": 24.735006
      },
      {
        "code": "C0D590",
        "name": "新豐",
        "city": "新竹縣",
        "lon": 120.977211,
        "lat": 24.870678
      },
      {
        "code": "C0D650",
        "name": "湖口",
        "city": "新竹縣",
        "lon": 121.043628,
        "lat": 24.904794
      },
      {
        "code": "C0D660",
        "name": "新竹市東區",
        "city": "新竹市",
        "lon": 120.986942,
        "lat": 24.798681
      },
      {
        "code": "C0D670",
        "name": "海天一線",
        "city": "新竹市",
        "lon": 120.914439,
        "lat": 24.831989
      },
      {
        "code": "C0D680",
        "name": "香山濕地",
        "city": "新竹市",
        "lon": 120.914989,
        "lat": 24.783583
      },
      {
        "code": "C0D690",
        "name": "外湖",
        "city": "新竹縣",
        "lon": 120.968711,
        "lat": 24.917736
      },
      {
        "code": "C0D700",
        "name": "關西",
        "city": "新竹縣",
        "lon": 121.173239,
        "lat": 24.797653
      },
      {
        "code": "C0D750",
        "name": "樂山林道6k",
        "city": "新竹縣",
        "lon": 121.08773,
        "lat": 24.49999
      },
      {
        "code": "C0D760",
        "name": "大坪苗圃",
        "city": "新竹縣",
        "lon": 121.1108,
        "lat": 24.5362
      },
      {
        "code": "C0E420",
        "name": "竹南",
        "city": "苗栗縣",
        "lon": 120.888897,
        "lat": 24.708978
      },
      {
        "code": "C0E430",
        "name": "南庄",
        "city": "苗栗縣",
        "lon": 121.000214,
        "lat": 24.601775
      },
      {
        "code": "C0E550",
        "name": "明德",
        "city": "苗栗縣",
        "lon": 120.885411,
        "lat": 24.583486
      },
      {
        "code": "C0E570",
        "name": "白沙屯",
        "city": "苗栗縣",
        "lon": 120.696803,
        "lat": 24.549447
      },
      {
        "code": "C0E590",
        "name": "通霄",
        "city": "苗栗縣",
        "lon": 120.704622,
        "lat": 24.471892
      },
      {
        "code": "C0E610",
        "name": "馬都安",
        "city": "苗栗縣",
        "lon": 120.930192,
        "lat": 24.451272
      },
      {
        "code": "C0E730",
        "name": "頭份",
        "city": "苗栗縣",
        "lon": 120.912206,
        "lat": 24.688247
      },
      {
        "code": "C0E740",
        "name": "造橋",
        "city": "苗栗縣",
        "lon": 120.864778,
        "lat": 24.637056
      },
      {
        "code": "C0E750",
        "name": "苗栗",
        "city": "苗栗縣",
        "lon": 120.824575,
        "lat": 24.564569
      },
      {
        "code": "C0E780",
        "name": "銅鑼",
        "city": "苗栗縣",
        "lon": 120.790853,
        "lat": 24.489681
      },
      {
        "code": "C0E791",
        "name": "卓蘭",
        "city": "苗栗縣",
        "lon": 120.824361,
        "lat": 24.312558
      },
      {
        "code": "C0E810",
        "name": "西湖",
        "city": "苗栗縣",
        "lon": 120.7485,
        "lat": 24.562947
      },
      {
        "code": "C0E820",
        "name": "獅潭",
        "city": "苗栗縣",
        "lon": 120.920042,
        "lat": 24.539133
      },
      {
        "code": "C0E830",
        "name": "苑裡",
        "city": "苗栗縣",
        "lon": 120.653053,
        "lat": 24.439714
      },
      {
        "code": "C0E850",
        "name": "大河",
        "city": "苗栗縣",
        "lon": 120.948578,
        "lat": 24.618069
      },
      {
        "code": "C0E870",
        "name": "高鐵苗栗",
        "city": "苗栗縣",
        "lon": 120.826094,
        "lat": 24.60725
      },
      {
        "code": "C0E910",
        "name": "海埔",
        "city": "苗栗縣",
        "lon": 120.772436,
        "lat": 24.648769
      },
      {
        "code": "C0E920",
        "name": "通霄漁港",
        "city": "苗栗縣",
        "lon": 120.673878,
        "lat": 24.498589
      },
      {
        "code": "C0E930",
        "name": "龍鳳",
        "city": "苗栗縣",
        "lon": 120.859128,
        "lat": 24.700036
      },
      {
        "code": "C0E940",
        "name": "雪見",
        "city": "苗栗縣",
        "lon": 121.01347,
        "lat": 24.42595
      },
      {
        "code": "C0E950",
        "name": "松安",
        "city": "苗栗縣",
        "lon": 120.98599,
        "lat": 24.39792
      },
      {
        "code": "C0E960",
        "name": "觀霧分站",
        "city": "苗栗縣",
        "lon": 121.113921,
        "lat": 24.505781
      },
      {
        "code": "C0F0A0",
        "name": "雪山圈谷A",
        "city": "臺中市",
        "lon": 121.236339,
        "lat": 24.388594
      },
      {
        "code": "C0F0B0",
        "name": "石岡",
        "city": "臺中市",
        "lon": 120.777644,
        "lat": 24.276061
      },
      {
        "code": "C0F0C0",
        "name": "中坑",
        "city": "臺中市",
        "lon": 120.903319,
        "lat": 24.248517
      },
      {
        "code": "C0F0D0",
        "name": "審馬陣A",
        "city": "臺中市",
        "lon": 121.4203,
        "lat": 24.381675
      },
      {
        "code": "C0F0E0",
        "name": "南湖圈谷A",
        "city": "臺中市",
        "lon": 121.444667,
        "lat": 24.363714
      },
      {
        "code": "C0F850",
        "name": "東勢",
        "city": "臺中市",
        "lon": 120.833047,
        "lat": 24.246428
      },
      {
        "code": "C0F970",
        "name": "大坑",
        "city": "臺中市",
        "lon": 120.722289,
        "lat": 24.173142
      },
      {
        "code": "C0F9I0",
        "name": "神岡",
        "city": "臺中市",
        "lon": 120.658314,
        "lat": 24.272481
      },
      {
        "code": "C0F9K0",
        "name": "大安",
        "city": "臺中市",
        "lon": 120.588025,
        "lat": 24.345061
      },
      {
        "code": "C0F9L0",
        "name": "后里",
        "city": "臺中市",
        "lon": 120.729725,
        "lat": 24.310436
      },
      {
        "code": "C0F9M0",
        "name": "豐原",
        "city": "臺中市",
        "lon": 120.720692,
        "lat": 24.254322
      },
      {
        "code": "C0F9N0",
        "name": "大里",
        "city": "臺中市",
        "lon": 120.701378,
        "lat": 24.092464
      },
      {
        "code": "C0F9O0",
        "name": "潭子",
        "city": "臺中市",
        "lon": 120.703933,
        "lat": 24.213106
      },
      {
        "code": "C0F9P0",
        "name": "清水",
        "city": "臺中市",
        "lon": 120.562242,
        "lat": 24.312297
      },
      {
        "code": "C0F9Q0",
        "name": "外埔",
        "city": "臺中市",
        "lon": 120.705686,
        "lat": 24.347817
      },
      {
        "code": "C0F9R0",
        "name": "龍井",
        "city": "臺中市",
        "lon": 120.528972,
        "lat": 24.184536
      },
      {
        "code": "C0F9S0",
        "name": "烏日",
        "city": "臺中市",
        "lon": 120.624103,
        "lat": 24.107058
      },
      {
        "code": "C0F9T0",
        "name": "西屯",
        "city": "臺中市",
        "lon": 120.641275,
        "lat": 24.179494
      },
      {
        "code": "C0F9U0",
        "name": "南屯",
        "city": "臺中市",
        "lon": 120.637969,
        "lat": 24.137006
      },
      {
        "code": "C0F9V0",
        "name": "新社",
        "city": "臺中市",
        "lon": 120.815806,
        "lat": 24.200172
      },
      {
        "code": "C0F9X0",
        "name": "大雅(中科園區)",
        "city": "臺中市",
        "lon": 120.62445,
        "lat": 24.215281
      },
      {
        "code": "C0F9Y0",
        "name": "桃山A",
        "city": "臺中市",
        "lon": 121.303808,
        "lat": 24.432739
      },
      {
        "code": "C0F9Z0",
        "name": "雪山東峰A",
        "city": "臺中市",
        "lon": 121.268675,
        "lat": 24.388792
      },
      {
        "code": "C0FA10",
        "name": "松柏",
        "city": "臺中市",
        "lon": 120.617483,
        "lat": 24.429117
      },
      {
        "code": "C0FA20",
        "name": "溫寮",
        "city": "臺中市",
        "lon": 120.583125,
        "lat": 24.372178
      },
      {
        "code": "C0FA40",
        "name": "臺中電廠",
        "city": "臺中市",
        "lon": 120.490744,
        "lat": 24.214641
      },
      {
        "code": "C0FA50",
        "name": "霧峰",
        "city": "臺中市",
        "lon": 120.699472,
        "lat": 24.041897
      },
      {
        "code": "C0FA60",
        "name": "鞍馬山工作站",
        "city": "臺中市",
        "lon": 121.000793,
        "lat": 24.267064
      },
      {
        "code": "C0FA70",
        "name": "大雪山埡口",
        "city": "臺中市",
        "lon": 121.03062,
        "lat": 24.26867
      },
      {
        "code": "C0FA80",
        "name": "小雪山天池",
        "city": "臺中市",
        "lon": 121.02627,
        "lat": 24.28025
      },
      {
        "code": "C0FA90",
        "name": "小雪山林道",
        "city": "臺中市",
        "lon": 121.03651,
        "lat": 24.29515
      },
      {
        "code": "C0FB00",
        "name": "大雪山",
        "city": "臺中市",
        "lon": 121.007374,
        "lat": 24.254668
      },
      {
        "code": "C0FB10",
        "name": "出雲山苗圃",
        "city": "臺中市",
        "lon": 120.90475,
        "lat": 24.23105
      },
      {
        "code": "C0FB20",
        "name": "雪山橋",
        "city": "臺中市",
        "lon": 120.9786,
        "lat": 24.23192
      },
      {
        "code": "C0FB30",
        "name": "八仙山苗圃",
        "city": "臺中市",
        "lon": 121.001366,
        "lat": 24.192719
      },
      {
        "code": "C0FB40",
        "name": "中橫21.6k",
        "city": "臺中市",
        "lon": 121.1455,
        "lat": 24.2499
      },
      {
        "code": "C0FB70",
        "name": "大甲溪埔",
        "city": "臺中市",
        "lon": 120.620067,
        "lat": 24.370625
      },
      {
        "code": "C0G620",
        "name": "芬園",
        "city": "彰化縣",
        "lon": 120.6213,
        "lat": 24.015678
      },
      {
        "code": "C0G650",
        "name": "員林",
        "city": "彰化縣",
        "lon": 120.585597,
        "lat": 23.946503
      },
      {
        "code": "C0G660",
        "name": "溪湖",
        "city": "彰化縣",
        "lon": 120.479122,
        "lat": 23.94835
      },
      {
        "code": "C0G720",
        "name": "溪州",
        "city": "彰化縣",
        "lon": 120.499083,
        "lat": 23.851597
      },
      {
        "code": "C0G730",
        "name": "二林",
        "city": "彰化縣",
        "lon": 120.376069,
        "lat": 23.903319
      },
      {
        "code": "C0G740",
        "name": "大城",
        "city": "彰化縣",
        "lon": 120.320922,
        "lat": 23.852481
      },
      {
        "code": "C0G770",
        "name": "福興",
        "city": "彰化縣",
        "lon": 120.437669,
        "lat": 24.041289
      },
      {
        "code": "C0G780",
        "name": "秀水",
        "city": "彰化縣",
        "lon": 120.503869,
        "lat": 24.03405
      },
      {
        "code": "C0G800",
        "name": "埔鹽",
        "city": "彰化縣",
        "lon": 120.431683,
        "lat": 24.000394
      },
      {
        "code": "C0G810",
        "name": "埔心",
        "city": "彰化縣",
        "lon": 120.525456,
        "lat": 23.947633
      },
      {
        "code": "C0G820",
        "name": "田尾",
        "city": "彰化縣",
        "lon": 120.509389,
        "lat": 23.901669
      },
      {
        "code": "C0G830",
        "name": "埤頭",
        "city": "彰化縣",
        "lon": 120.452806,
        "lat": 23.866003
      },
      {
        "code": "C0G860",
        "name": "社頭",
        "city": "彰化縣",
        "lon": 120.5862,
        "lat": 23.897647
      },
      {
        "code": "C0G880",
        "name": "二水",
        "city": "彰化縣",
        "lon": 120.6173,
        "lat": 23.810742
      },
      {
        "code": "C0G890",
        "name": "伸港",
        "city": "彰化縣",
        "lon": 120.484403,
        "lat": 24.148933
      },
      {
        "code": "C0G900",
        "name": "線西",
        "city": "彰化縣",
        "lon": 120.443536,
        "lat": 24.143358
      },
      {
        "code": "C0G910",
        "name": "花壇",
        "city": "彰化縣",
        "lon": 120.549461,
        "lat": 24.030322
      },
      {
        "code": "C0G920",
        "name": "永靖",
        "city": "彰化縣",
        "lon": 120.547533,
        "lat": 23.924703
      },
      {
        "code": "C0G940",
        "name": "竹塘",
        "city": "彰化縣",
        "lon": 120.386764,
        "lat": 23.848253
      },
      {
        "code": "C0G950",
        "name": "防潮門",
        "city": "彰化縣",
        "lon": 120.48713,
        "lat": 24.183494
      },
      {
        "code": "C0G960",
        "name": "福寶",
        "city": "彰化縣",
        "lon": 120.381361,
        "lat": 24.044302
      },
      {
        "code": "C0G970",
        "name": "三豐",
        "city": "彰化縣",
        "lon": 120.289544,
        "lat": 23.881975
      },
      {
        "code": "C0G9B0",
        "name": "和美",
        "city": "彰化縣",
        "lon": 120.492131,
        "lat": 24.105169
      },
      {
        "code": "C0H890",
        "name": "埔里",
        "city": "南投縣",
        "lon": 120.952425,
        "lat": 23.972169
      },
      {
        "code": "C0H960",
        "name": "草屯",
        "city": "南投縣",
        "lon": 120.68085,
        "lat": 23.973672
      },
      {
        "code": "C0H990",
        "name": "昆陽",
        "city": "南投縣",
        "lon": 121.273642,
        "lat": 24.121322
      },
      {
        "code": "C0H9A0",
        "name": "神木村",
        "city": "南投縣",
        "lon": 120.843667,
        "lat": 23.532742
      },
      {
        "code": "C0H9C0",
        "name": "合歡山",
        "city": "南投縣",
        "lon": 121.272547,
        "lat": 24.143442
      },
      {
        "code": "C0I010",
        "name": "廬山",
        "city": "南投縣",
        "lon": 121.181808,
        "lat": 24.033311
      },
      {
        "code": "C0I080",
        "name": "信義",
        "city": "南投縣",
        "lon": 120.851036,
        "lat": 23.689694
      },
      {
        "code": "C0I110",
        "name": "竹山",
        "city": "南投縣",
        "lon": 120.688156,
        "lat": 23.761225
      },
      {
        "code": "C0I360",
        "name": "水里",
        "city": "南投縣",
        "lon": 120.849792,
        "lat": 23.812553
      },
      {
        "code": "C0I370",
        "name": "魚池",
        "city": "南投縣",
        "lon": 120.94135,
        "lat": 23.895703
      },
      {
        "code": "C0I380",
        "name": "集集",
        "city": "南投縣",
        "lon": 120.801467,
        "lat": 23.828206
      },
      {
        "code": "C0I390",
        "name": "仁愛",
        "city": "南投縣",
        "lon": 121.132206,
        "lat": 24.022122
      },
      {
        "code": "C0I410",
        "name": "名間",
        "city": "南投縣",
        "lon": 120.701447,
        "lat": 23.837053
      },
      {
        "code": "C0I420",
        "name": "國姓",
        "city": "南投縣",
        "lon": 120.855072,
        "lat": 24.037803
      },
      {
        "code": "C0I460",
        "name": "南投",
        "city": "南投縣",
        "lon": 120.687331,
        "lat": 23.911469
      },
      {
        "code": "C0I480",
        "name": "梅峰",
        "city": "南投縣",
        "lon": 121.173572,
        "lat": 24.085272
      },
      {
        "code": "C0I490",
        "name": "萬大林道",
        "city": "南投縣",
        "lon": 121.091411,
        "lat": 23.928228
      },
      {
        "code": "C0I520",
        "name": "玉山風口",
        "city": "南投縣",
        "lon": 120.955994,
        "lat": 23.470489
      },
      {
        "code": "C0I530",
        "name": "小奇萊",
        "city": "南投縣",
        "lon": 121.295717,
        "lat": 24.131764
      },
      {
        "code": "C0I540",
        "name": "奇萊稜線A",
        "city": "南投縣",
        "lon": 121.326456,
        "lat": 24.109231
      },
      {
        "code": "C0K250",
        "name": "崙背",
        "city": "雲林縣",
        "lon": 120.318925,
        "lat": 23.75555
      },
      {
        "code": "C0K280",
        "name": "四湖",
        "city": "雲林縣",
        "lon": 120.227125,
        "lat": 23.630414
      },
      {
        "code": "C0K291",
        "name": "宜梧",
        "city": "雲林縣",
        "lon": 120.169311,
        "lat": 23.536267
      },
      {
        "code": "C0K330",
        "name": "虎尾",
        "city": "雲林縣",
        "lon": 120.442036,
        "lat": 23.719183
      },
      {
        "code": "C0K390",
        "name": "土庫",
        "city": "雲林縣",
        "lon": 120.395561,
        "lat": 23.679019
      },
      {
        "code": "C0K400",
        "name": "斗六",
        "city": "雲林縣",
        "lon": 120.541117,
        "lat": 23.720575
      },
      {
        "code": "C0K410",
        "name": "北港",
        "city": "雲林縣",
        "lon": 120.291786,
        "lat": 23.574056
      },
      {
        "code": "C0K420",
        "name": "西螺",
        "city": "雲林縣",
        "lon": 120.467383,
        "lat": 23.8004
      },
      {
        "code": "C0K430",
        "name": "褒忠",
        "city": "雲林縣",
        "lon": 120.303619,
        "lat": 23.690928
      },
      {
        "code": "C0K440",
        "name": "二崙",
        "city": "雲林縣",
        "lon": 120.408944,
        "lat": 23.772797
      },
      {
        "code": "C0K450",
        "name": "大埤",
        "city": "雲林縣",
        "lon": 120.431525,
        "lat": 23.646064
      },